[
  {
    "name": "Blantyre",
    "latitude": -15.7862543,
    "longitude": 35.0035694,
    "admin": null,
    "type": "city",
    "source": "osm"
  },
  {
    "name": "Ilala Ferry",
    "latitude": -12.9121459,
    "longitude": 34.3009096,
    "admin": null,
    "type": "ferry_terminal",
    "source": "osm"
  },
  {
    "name": "Chilumba",
    "latitude": -10.4339594,
    "longitude": 34.2556,
    "admin": "Malawi",
    "type": "town",
    "source": "osm"
  },
  {
    "name": "Karonga",
    "latitude": -9.9393499,
    "longitude": 33.9271368,
    "admin": "Malawi",
    "type": "town",
    "source": "osm"
  },
  {
    "name": "Nkhotakota",
    "latitude": -12.9269733,
    "longitude": 34.2967127,
    "admin": "Malawi",
    "type": "town",
    "source": "osm"
  },
  {
    "name": "Mzuzu",
    "latitude": -11.4607518,
    "longitude": 34.0226422,
    "admin": null,
    "type": "city",
    "source": "osm"
  },
  {
    "name": "Ekwendeni",
    "latitude": -11.3723169,
    "longitude": 33.8818408,
    "admin": "Malawi",
    "type": "town",
    "source": "osm"
  },
  {
    "name": "Chitipa",
    "latitude": -9.7026075,
    "longitude": 33.274819,
    "admin": null,
    "type": "town",
    "source": "osm"
  },
  {
    "name": "Mzimba",
    "latitude": -11.8989563,
    "longitude": 33.5951593,
    "admin": "Malawi",
    "type": "town",
    "source": "osm"
  },
  {
    "name": "Salima",
    "latitude": -13.7766347,
    "longitude": 34.4482507,
    "admin": "Malawi",
    "type": "town",
    "source": "osm"
  },
  {
    "name": "Kasungu",
    "latitude": -13.0395452,
    "longitude": 33.4784085,
    "admin": null,
    "type": "town",
    "source": "osm"
  },
  {
    "name": "Mangochi",
    "latitude": -14.4805084,
    "longitude": 35.2606129,
    "admin": null,
    "type": "town",
    "source": "osm"
  },
  {
    "name": "Malindi",
    "latitude": -14.3385086,
    "longitude": 35.2879346,
    "admin": null,
    "type": "village",
    "source": "osm"
  },
  {
    "name": "Chiponde",
    "latitude": -14.3708027,
    "longitude": 35.6010136,
    "admin": "Malawi",
    "type": "village",
    "source": "osm"
  },
  {
    "name": "Limbe",
    "latitude": -15.8074399,
    "longitude": 35.0525005,
    "admin": "Malawi",
    "type": "city",
    "source": "osm"
  },
  {
    "name": "Balaka",
    "latitude": -14.9858678,
    "longitude": 34.9602966,
    "admin": "Malawi",
    "type": "town",
    "source": "osm"
  },
  {
    "name": "Dedza",
    "latitude": -14.3807275,
    "longitude": 34.3282385,
    "admin": "Malawi",
    "type": "town",
    "source": "osm"
  },
  {
    "name": "Monkey Bay",
    "latitude": -14.0831457,
    "longitude": 34.9145436,
    "admin": "Malawi",
    "type": "town",
    "source": "osm"
  },
  {
    "name": "Cape Maclear",
    "latitude": -13.9986532,
    "longitude": 34.8529883,
    "admin": "Malawi",
    "type": "attraction",
    "source": "osm"
  },
  {
    "name": "Mchinji",
    "latitude": -13.7971726,
    "longitude": 32.8874963,
    "admin": null,
    "type": "town",
    "source": "osm"
  },
  {
    "name": "Zomba",
    "latitude": -15.3863208,
    "longitude": 35.3268273,
    "admin": "Malawi",
    "type": "city",
    "source": "osm"
  },
  {
    "name": "Chosi Viewpoint",
    "latitude": -10.6127234,
    "longitude": 33.7564911,
    "admin": "Malawi",
    "type": "attraction",
    "source": "osm"
  },
  {
    "name": "Viewpoint",
    "latitude": -10.5114298,
    "longitude": 33.7292152,
    "admin": null,
    "type": "attraction",
    "source": "osm"
  },
  {
    "name": "Chikwina",
    "latitude": -11.3973061,
    "longitude": 34.1718267,
    "admin": "Malawi",
    "type": "village",
    "source": "osm"
  },
  {
    "name": "Euthini",
    "latitude": -11.4505714,
    "longitude": 33.426604,
    "admin": "Malawi",
    "type": "village",
    "source": "osm"
  },
  {
    "name": "Domasi",
    "latitude": -15.2827052,
    "longitude": 35.3992023,
    "admin": "Malawi",
    "type": "town",
    "source": "osm"
  },
  {
    "name": "Phalombe",
    "latitude": -15.806557,
    "longitude": 35.6480673,
    "admin": "Malawi",
    "type": "town",
    "source": "osm"
  },
  {
    "name": "Lirangwe",
    "latitude": -15.5287305,
    "longitude": 35.0256193,
    "admin": "Malawi",
    "type": "town",
    "source": "osm"
  },
  {
    "name": "Rukuru Point",
    "latitude": -10.7566358,
    "longitude": 34.2125343,
    "admin": "Malawi",
    "type": "hamlet",
    "source": "osm"
  },
  {
    "name": "Rumphi",
    "latitude": -11.0159927,
    "longitude": 33.8587703,
    "admin": "Malawi",
    "type": "town",
    "source": "osm"
  },
  {
    "name": "Camp Kazuni",
    "latitude": -11.1348895,
    "longitude": 33.6495307,
    "admin": "Malawi",
    "type": "camp_site",
    "source": "osm"
  },
  {
    "name": "Chelinda Lodge",
    "latitude": -10.5921215,
    "longitude": 33.8153282,
    "admin": "Malawi",
    "type": "hotel",
    "source": "osm"
  },
  {
    "name": "Kaporo",
    "latitude": -9.764549,
    "longitude": 33.8758364,
    "admin": "Malawi",
    "type": "town",
    "source": "osm"
  },
  {
    "name": "Kopakopa",
    "latitude": -10.1631184,
    "longitude": 33.749485,
    "admin": "Malawi",
    "type": "hamlet",
    "source": "osm"
  },
  {
    "name": "Winstone Kameme",
    "latitude": -9.5796401,
    "longitude": 33.21804,
    "admin": "Malawi",
    "type": "hamlet",
    "source": "osm"
  },
  {
    "name": "Kameme",
    "latitude": -9.5692058,
    "longitude": 33.092603,
    "admin": "Malawi",
    "type": "town",
    "source": "osm"
  },
  {
    "name": "Chendo",
    "latitude": -9.8878063,
    "longitude": 33.4115013,
    "admin": "Malawi",
    "type": "village",
    "source": "osm"
  },
  {
    "name": "Bwengu",
    "latitude": -11.0542824,
    "longitude": 33.9206422,
    "admin": "Malawi",
    "type": "village",
    "source": "osm"
  },
  {
    "name": "Mwasizi",
    "latitude": -10.918838,
    "longitude": 33.5845349,
    "admin": "Malawi",
    "type": "village",
    "source": "osm"
  },
  {
    "name": "Ngwata ADMARC",
    "latitude": -12.7436069,
    "longitude": 33.6623748,
    "admin": null,
    "type": "marketplace",
    "source": "osm"
  },
  {
    "name": "Mwanza",
    "latitude": -15.6092182,
    "longitude": 34.5234238,
    "admin": "Malawi",
    "type": "town",
    "source": "osm"
  },
  {
    "name": "Chikwawa",
    "latitude": -16.0271313,
    "longitude": 34.7912153,
    "admin": "Malawi",
    "type": "town",
    "source": "osm"
  },
  {
    "name": "Bangula",
    "latitude": -16.5751399,
    "longitude": 35.1177792,
    "admin": "Malawi",
    "type": "town",
    "source": "osm"
  },
  {
    "name": "Lunzu",
    "latitude": -15.6449781,
    "longitude": 35.0182753,
    "admin": "Malawi",
    "type": "village",
    "source": "osm"
  },
  {
    "name": "Masasa",
    "latitude": -14.4334041,
    "longitude": 34.4222838,
    "admin": "Malawi",
    "type": "village",
    "source": "osm"
  },
  {
    "name": "Mua",
    "latitude": -14.2836583,
    "longitude": 34.5110091,
    "admin": "Malawi",
    "type": "village",
    "source": "osm"
  },
  {
    "name": "Kamwendo",
    "latitude": -13.8302494,
    "longitude": 33.0450285,
    "admin": "Malawi",
    "type": "village",
    "source": "osm"
  },
  {
    "name": "Likuni",
    "latitude": -14.0281706,
    "longitude": 33.7066948,
    "admin": "Malawi",
    "type": "hospital",
    "source": "osm"
  },
  {
    "name": "Chiromo",
    "latitude": -16.5249906,
    "longitude": 35.1738395,
    "admin": null,
    "type": "village",
    "source": "osm"
  },
  {
    "name": "Tuchila",
    "latitude": -15.9138457,
    "longitude": 35.3584915,
    "admin": "Malawi",
    "type": "village",
    "source": "osm"
  },
  {
    "name": "Luchenza",
    "latitude": -16.0051495,
    "longitude": 35.3089264,
    "admin": "Malawi",
    "type": "town",
    "source": "osm"
  },
  {
    "name": "Chintheche",
    "latitude": -11.8313824,
    "longitude": 34.1693013,
    "admin": "Malawi",
    "type": "town",
    "source": "osm"
  },
  {
    "name": "Chiradzulu",
    "latitude": -15.7046189,
    "longitude": 35.182269,
    "admin": "Malawi",
    "type": "village",
    "source": "osm"
  },
  {
    "name": "Mponela",
    "latitude": -13.5297184,
    "longitude": 33.7371277,
    "admin": "Malawi",
    "type": "town",
    "source": "osm"
  },
  {
    "name": "Chipoka",
    "latitude": -13.990296,
    "longitude": 34.5153346,
    "admin": "Malawi",
    "type": "town",
    "source": "osm"
  },
  {
    "name": "Ntcheu",
    "latitude": -14.8178745,
    "longitude": 34.6384332,
    "admin": "Malawi",
    "type": "town",
    "source": "osm"
  },
  {
    "name": "Nsanje",
    "latitude": -16.9232359,
    "longitude": 35.261946,
    "admin": "Malawi",
    "type": "town",
    "source": "osm"
  },
  {
    "name": "Benga",
    "latitude": -13.3750504,
    "longitude": 34.2589241,
    "admin": "Malawi",
    "type": "town",
    "source": "osm"
  },
  {
    "name": "Edingeni",
    "latitude": -12.0452993,
    "longitude": 33.3118602,
    "admin": null,
    "type": "town",
    "source": "osm"
  },
  {
    "name": "Katumbi",
    "latitude": -10.813366,
    "longitude": 33.5221881,
    "admin": "Malawi",
    "type": "town",
    "source": "osm"
  },
  {
    "name": "Lizulu",
    "latitude": -14.51783,
    "longitude": 34.4654651,
    "admin": null,
    "type": "village",
    "source": "osm"
  },
  {
    "name": "Dowa",
    "latitude": -13.6576733,
    "longitude": 33.9302091,
    "admin": "Malawi",
    "type": "town",
    "source": "osm"
  },
  {
    "name": "Bolero",
    "latitude": -10.9811424,
    "longitude": 33.7412437,
    "admin": "Malawi",
    "type": "village",
    "source": "osm"
  },
  {
    "name": "Ehlehleni",
    "latitude": -12.2542777,
    "longitude": 33.5801576,
    "admin": "Malawi",
    "type": "village",
    "source": "osm"
  },
  {
    "name": "Balakas",
    "latitude": -14.9241643,
    "longitude": 34.8750137,
    "admin": "Malawi",
    "type": "village",
    "source": "osm"
  },
  {
    "name": "Kalinde",
    "latitude": -13.7198342,
    "longitude": 33.1867694,
    "admin": "Malawi",
    "type": "village",
    "source": "osm"
  },
  {
    "name": "Gandali",
    "latitude": -13.7043362,
    "longitude": 33.1357211,
    "admin": "Malawi",
    "type": "village",
    "source": "osm"
  },
  {
    "name": "Lombwa",
    "latitude": -13.462827,
    "longitude": 33.0764514,
    "admin": "Malawi",
    "type": "village",
    "source": "osm"
  },
  {
    "name": "Chitundu",
    "latitude": -14.0947927,
    "longitude": 34.2566545,
    "admin": "Malawi",
    "type": "village",
    "source": "osm"
  },
  {
    "name": "Mphomwa",
    "latitude": -12.8156932,
    "longitude": 33.4333704,
    "admin": "Malawi",
    "type": "village",
    "source": "osm"
  },
  {
    "name": "Timbenao",
    "latitude": -16.0943599,
    "longitude": 34.6192445,
    "admin": "Malawi",
    "type": "village",
    "source": "osm"
  },
  {
    "name": "Phwadzi",
    "latitude": -16.0168261,
    "longitude": 34.5141878,
    "admin": "Malawi",
    "type": "village",
    "source": "osm"
  },
  {
    "name": "Kalonga",
    "latitude": -14.9015698,
    "longitude": 34.5837577,
    "admin": "Malawi",
    "type": "village",
    "source": "osm"
  },
  {
    "name": "Hawilani",
    "latitude": -14.8204836,
    "longitude": 34.7534332,
    "admin": "Malawi",
    "type": "village",
    "source": "osm"
  },
  {
    "name": "Manyamula",
    "latitude": -11.9383718,
    "longitude": 33.4410581,
    "admin": "Malawi",
    "type": "village",
    "source": "osm"
  },
  {
    "name": "Embangweni",
    "latitude": -12.1420534,
    "longitude": 33.4717291,
    "admin": "Malawi",
    "type": "village",
    "source": "osm"
  },
  {
    "name": "Chibaka",
    "latitude": -11.6624638,
    "longitude": 34.2439763,
    "admin": "Malawi",
    "type": "village",
    "source": "osm"
  },
  {
    "name": "Chisokowo",
    "latitude": -10.9078967,
    "longitude": 34.0303609,
    "admin": "Malawi",
    "type": "village",
    "source": "osm"
  },
  {
    "name": "Kliwawa",
    "latitude": -10.5443324,
    "longitude": 34.2005906,
    "admin": "Malawi",
    "type": "village",
    "source": "osm"
  },
  {
    "name": "Mlali",
    "latitude": -10.1768378,
    "longitude": 34.0422264,
    "admin": "Malawi",
    "type": "village",
    "source": "osm"
  },
  {
    "name": "Nyungwe",
    "latitude": -10.28916,
    "longitude": 34.1086844,
    "admin": "Malawi",
    "type": "village",
    "source": "osm"
  },
  {
    "name": "Bunganiro",
    "latitude": -10.3202133,
    "longitude": 34.0517011,
    "admin": "Malawi",
    "type": "village",
    "source": "osm"
  },
  {
    "name": "Kapika",
    "latitude": -10.4431144,
    "longitude": 34.0925855,
    "admin": "Malawi",
    "type": "village",
    "source": "osm"
  },
  {
    "name": "Chagwambala",
    "latitude": -10.2253365,
    "longitude": 33.6599719,
    "admin": "Malawi",
    "type": "village",
    "source": "osm"
  },
  {
    "name": "Mwenewenya",
    "latitude": -10.1104139,
    "longitude": 33.5647939,
    "admin": "Malawi",
    "type": "village",
    "source": "osm"
  },
  {
    "name": "Kama",
    "latitude": -10.186424,
    "longitude": 33.5510664,
    "admin": "Malawi",
    "type": "village",
    "source": "osm"
  },
  {
    "name": "Nthalire",
    "latitude": -10.3506755,
    "longitude": 33.6414169,
    "admin": "Malawi",
    "type": "village",
    "source": "osm"
  },
  {
    "name": "Mporo",
    "latitude": -10.8991572,
    "longitude": 33.557397,
    "admin": "Malawi",
    "type": "village",
    "source": "osm"
  },
  {
    "name": "Chitango",
    "latitude": -10.92676,
    "longitude": 33.627684,
    "admin": "Malawi",
    "type": "village",
    "source": "osm"
  },
  {
    "name": "N'gonga",
    "latitude": -10.9430899,
    "longitude": 33.9407147,
    "admin": "Malawi",
    "type": "village",
    "source": "osm"
  },
  {
    "name": "Phwangwa",
    "latitude": -10.867196,
    "longitude": 33.9916041,
    "admin": "Malawi",
    "type": "village",
    "source": "osm"
  },
  {
    "name": "Chiwerewere",
    "latitude": -10.7289741,
    "longitude": 34.0367081,
    "admin": "Malawi",
    "type": "village",
    "source": "osm"
  },
  {
    "name": "Chiwato Jere",
    "latitude": -11.1749187,
    "longitude": 33.8475967,
    "admin": "Malawi",
    "type": "village",
    "source": "osm"
  },
  {
    "name": "Chiweta",
    "latitude": -10.6967346,
    "longitude": 34.1861245,
    "admin": "Malawi",
    "type": "village",
    "source": "osm"
  },
  {
    "name": "Thondwe",
    "latitude": -15.4973533,
    "longitude": 35.4687111,
    "admin": null,
    "type": "village",
    "source": "osm"
  },
  {
    "name": "Machinga",
    "latitude": -15.1766425,
    "longitude": 35.2982098,
    "admin": "Malawi",
    "type": "town",
    "source": "osm"
  },
  {
    "name": "Mposa",
    "latitude": -15.1474279,
    "longitude": 35.529874,
    "admin": "Malawi",
    "type": "village",
    "source": "osm"
  },
  {
    "name": "Mlomba",
    "latitude": -15.0420006,
    "longitude": 35.4653262,
    "admin": "Malawi",
    "type": "village",
    "source": "osm"
  },
  {
    "name": "Nathenje",
    "latitude": -14.080234,
    "longitude": 33.9067081,
    "admin": "Malawi",
    "type": "village",
    "source": "osm"
  },
  {
    "name": "Kasinje",
    "latitude": -14.5311731,
    "longitude": 34.6774968,
    "admin": "Malawi",
    "type": "village",
    "source": "osm"
  },
  {
    "name": "Fort Mlangeni",
    "latitude": -14.6843296,
    "longitude": 34.522862,
    "admin": null,
    "type": "village",
    "source": "osm"
  },
  {
    "name": "Linthipe",
    "latitude": -14.1748697,
    "longitude": 34.1243749,
    "admin": "Malawi",
    "type": "village",
    "source": "osm"
  },
  {
    "name": "Kaphuka",
    "latitude": -14.1821928,
    "longitude": 34.2249684,
    "admin": "Malawi",
    "type": "village",
    "source": "osm"
  },
  {
    "name": "Chipasi",
    "latitude": -14.2993543,
    "longitude": 34.277067,
    "admin": "Malawi",
    "type": "village",
    "source": "osm"
  },
  {
    "name": "Chiluzi",
    "latitude": -14.2014931,
    "longitude": 34.2841852,
    "admin": "Malawi",
    "type": "village",
    "source": "osm"
  },
  {
    "name": "Lobi",
    "latitude": -14.3824528,
    "longitude": 34.0759732,
    "admin": "Malawi",
    "type": "town",
    "source": "osm"
  },
  {
    "name": "Thete",
    "latitude": -14.3145997,
    "longitude": 34.0964009,
    "admin": "Malawi",
    "type": "village",
    "source": "osm"
  },
  {
    "name": "Sinyala",
    "latitude": -14.1706612,
    "longitude": 33.6401998,
    "admin": "Malawi",
    "type": "village",
    "source": "osm"
  },
  {
    "name": "Ngabu",
    "latitude": -16.4584355,
    "longitude": 34.8866104,
    "admin": "Malawi",
    "type": "town",
    "source": "osm"
  },
  {
    "name": "Malomo",
    "latitude": -13.1473254,
    "longitude": 33.8362182,
    "admin": "Malawi",
    "type": "village",
    "source": "osm"
  },
  {
    "name": "Mbobo",
    "latitude": -13.1309399,
    "longitude": 33.953457,
    "admin": "Malawi",
    "type": "village",
    "source": "osm"
  },
  {
    "name": "Mwenda",
    "latitude": -14.1596541,
    "longitude": 33.7567103,
    "admin": "Malawi",
    "type": "village",
    "source": "osm"
  },
  {
    "name": "Chavara",
    "latitude": -15.8323917,
    "longitude": 34.8345016,
    "admin": "Malawi",
    "type": "village",
    "source": "osm"
  },
  {
    "name": "Mulima",
    "latitude": -15.8151036,
    "longitude": 34.8716623,
    "admin": "Malawi",
    "type": "village",
    "source": "osm"
  },
  {
    "name": "Kaiawo",
    "latitude": -15.7770494,
    "longitude": 34.8855046,
    "admin": "Malawi",
    "type": "village",
    "source": "osm"
  },
  {
    "name": "Sosola",
    "latitude": -14.4140399,
    "longitude": 34.7875915,
    "admin": null,
    "type": "village",
    "source": "osm"
  },
  {
    "name": "Bandawe",
    "latitude": -11.9203574,
    "longitude": 34.1678572,
    "admin": null,
    "type": "village",
    "source": "osm"
  },
  {
    "name": "Msochi",
    "latitude": -13.6218386,
    "longitude": 33.9326467,
    "admin": "Malawi",
    "type": "village",
    "source": "osm"
  },
  {
    "name": "Mbalame",
    "latitude": -13.6890542,
    "longitude": 33.8410248,
    "admin": "Malawi",
    "type": "village",
    "source": "osm"
  },
  {
    "name": "Lumbadzi",
    "latitude": -13.7717291,
    "longitude": 33.8134907,
    "admin": "Malawi",
    "type": "village",
    "source": "osm"
  },
  {
    "name": "Majete Game Reserve, Camp Site",
    "latitude": -15.9112779,
    "longitude": 34.7416767,
    "admin": null,
    "type": "camp_site",
    "source": "osm"
  },
  {
    "name": "View Spot",
    "latitude": -15.8907838,
    "longitude": 34.7387394,
    "admin": null,
    "type": "viewpoint",
    "source": "osm"
  },
  {
    "name": "Main hide",
    "latitude": -16.2207628,
    "longitude": 34.7834987,
    "admin": null,
    "type": "attraction",
    "source": "osm"
  },
  {
    "name": "Jasi Hide",
    "latitude": -16.2603819,
    "longitude": 34.7993206,
    "admin": null,
    "type": "attraction",
    "source": "osm"
  },
  {
    "name": "Hippo Spot",
    "latitude": -15.8317094,
    "longitude": 34.7404631,
    "admin": null,
    "type": "attraction",
    "source": "osm"
  },
  {
    "name": "Trout Farm",
    "latitude": -15.3541162,
    "longitude": 35.3014525,
    "admin": null,
    "type": "camp_site",
    "source": "osm"
  },
  {
    "name": "Safari Beach Lodge",
    "latitude": -13.7095686,
    "longitude": 34.622129,
    "admin": null,
    "type": "hotel",
    "source": "osm"
  },
  {
    "name": "The Wheelhouse",
    "latitude": -13.7766651,
    "longitude": 34.6189706,
    "admin": null,
    "type": "camp_site",
    "source": "osm"
  },
  {
    "name": "Stuart Grants Fish Farm",
    "latitude": -13.7752479,
    "longitude": 34.6097867,
    "admin": null,
    "type": "attraction",
    "source": "osm"
  },
  {
    "name": "CCAP Likhubula Mission",
    "latitude": -15.9378557,
    "longitude": 35.5033927,
    "admin": null,
    "type": "place_of_worship",
    "source": "osm"
  },
  {
    "name": "Likhubula Pools",
    "latitude": -15.9404095,
    "longitude": 35.5023168,
    "admin": null,
    "type": "attraction",
    "source": "osm"
  },
  {
    "name": "Wodospad",
    "latitude": -15.9266311,
    "longitude": 35.5374846,
    "admin": null,
    "type": "attraction",
    "source": "osm"
  },
  {
    "name": "Thuma FR Basecamp",
    "latitude": -13.8424775,
    "longitude": 34.2526702,
    "admin": null,
    "type": "camp_site",
    "source": "osm"
  },
  {
    "name": "Nkhotakota Pottery",
    "latitude": -13.0509735,
    "longitude": 34.326401,
    "admin": null,
    "type": "camp_site",
    "source": "osm"
  },
  {
    "name": "Nkhata Bay",
    "latitude": -11.606995,
    "longitude": 34.2983907,
    "admin": "Malawi",
    "type": "town",
    "source": "osm"
  },
  {
    "name": "Chelinda Campsite",
    "latitude": -10.5851115,
    "longitude": 33.7992309,
    "admin": null,
    "type": "camp_site",
    "source": "osm"
  },
  {
    "name": "Bua Camp",
    "latitude": -12.8339067,
    "longitude": 34.1629228,
    "admin": null,
    "type": "camp_site",
    "source": "osm"
  },
  {
    "name": "Tongole Wilderness Lodge",
    "latitude": -12.9112308,
    "longitude": 34.050287,
    "admin": null,
    "type": "hotel",
    "source": "osm"
  },
  {
    "name": "Open space viewpoint E. 1678 m.",
    "latitude": -13.3615074,
    "longitude": 34.0169191,
    "admin": null,
    "type": "viewpoint",
    "source": "osm"
  },
  {
    "name": "Mkule",
    "latitude": -14.0890114,
    "longitude": 33.7939763,
    "admin": "Malawi",
    "type": "village",
    "source": "osm"
  },
  {
    "name": "Chitika",
    "latitude": -11.9142955,
    "longitude": 34.1479079,
    "admin": "Malawi",
    "type": "village",
    "source": "osm"
  },
  {
    "name": "Kande",
    "latitude": -11.9360941,
    "longitude": 34.1073143,
    "admin": "Malawi",
    "type": "village",
    "source": "osm"
  },
  {
    "name": "Kachere",
    "latitude": -12.003887,
    "longitude": 34.0489924,
    "admin": "Malawi",
    "type": "village",
    "source": "osm"
  },
  {
    "name": "Enukweni",
    "latitude": -11.1752201,
    "longitude": 33.8818028,
    "admin": "Malawi",
    "type": "village",
    "source": "osm"
  },
  {
    "name": "Elephant Rock",
    "latitude": -11.7216849,
    "longitude": 33.7924228,
    "admin": null,
    "type": "attraction",
    "source": "osm"
  },
  {
    "name": "Luwawa Falls",
    "latitude": -12.0941763,
    "longitude": 33.7964941,
    "admin": null,
    "type": "attraction",
    "source": "osm"
  },
  {
    "name": "Black Rock",
    "latitude": -13.0297794,
    "longitude": 33.1211278,
    "admin": null,
    "type": "attraction",
    "source": "osm"
  },
  {
    "name": "Chapaluka Falls",
    "latitude": -15.9344715,
    "longitude": 35.5316481,
    "admin": null,
    "type": "attraction",
    "source": "osm"
  },
  {
    "name": "Masangi",
    "latitude": -14.2624102,
    "longitude": 35.0786423,
    "admin": "Malawi",
    "type": "village",
    "source": "osm"
  },
  {
    "name": "Nankwhali Mission",
    "latitude": -14.1350478,
    "longitude": 34.8488927,
    "admin": "Malawi",
    "type": "village",
    "source": "osm"
  },
  {
    "name": "Nkopo",
    "latitude": -14.2182396,
    "longitude": 35.035111,
    "admin": "Malawi",
    "type": "village",
    "source": "osm"
  },
  {
    "name": "Nganja",
    "latitude": -14.4178922,
    "longitude": 34.5198113,
    "admin": "Malawi",
    "type": "village",
    "source": "osm"
  },
  {
    "name": "Chileka",
    "latitude": -11.9136187,
    "longitude": 34.1478575,
    "admin": "Malawi",
    "type": "village",
    "source": "osm"
  },
  {
    "name": "Ngodzi",
    "latitude": -14.0955384,
    "longitude": 34.5154103,
    "admin": "Malawi",
    "type": "village",
    "source": "osm"
  },
  {
    "name": "Mazamba",
    "latitude": -11.6954366,
    "longitude": 33.9099564,
    "admin": "Malawi",
    "type": "village",
    "source": "osm"
  },
  {
    "name": "Chongoni Mountain",
    "latitude": -14.2092949,
    "longitude": 34.2021458,
    "admin": null,
    "type": "attraction",
    "source": "osm"
  },
  {
    "name": "Ntanja",
    "latitude": -14.8719847,
    "longitude": 35.5278216,
    "admin": "Malawi",
    "type": "village",
    "source": "osm"
  },
  {
    "name": "Namadzi",
    "latitude": -15.6397818,
    "longitude": 35.1553963,
    "admin": "Malawi",
    "type": "village",
    "source": "osm"
  },
  {
    "name": "Makanjila",
    "latitude": -13.7098897,
    "longitude": 35.0454853,
    "admin": null,
    "type": "village",
    "source": "osm"
  },
  {
    "name": "Chitimba",
    "latitude": -10.5942175,
    "longitude": 34.1682325,
    "admin": "Malawi",
    "type": "village",
    "source": "osm"
  },
  {
    "name": "Michiru Mountain",
    "latitude": -15.736572,
    "longitude": 34.9620148,
    "admin": null,
    "type": "viewpoint",
    "source": "osm"
  },
  {
    "name": "Malembo",
    "latitude": -14.2289889,
    "longitude": 34.8144253,
    "admin": "Malawi",
    "type": "village",
    "source": "osm"
  },
  {
    "name": "Mtakataka",
    "latitude": -14.2248472,
    "longitude": 34.5166667,
    "admin": "Malawi",
    "type": "village",
    "source": "osm"
  },
  {
    "name": "Mangwina",
    "latitude": -11.4547949,
    "longitude": 34.2745106,
    "admin": "Malawi",
    "type": "village",
    "source": "osm"
  },
  {
    "name": "Usisya",
    "latitude": -11.2455589,
    "longitude": 34.2235427,
    "admin": "Malawi",
    "type": "village",
    "source": "osm"
  },
  {
    "name": "Ruarwe",
    "latitude": -11.1105335,
    "longitude": 34.2312126,
    "admin": "Malawi",
    "type": "village",
    "source": "osm"
  },
  {
    "name": "Mlowe",
    "latitude": -10.7620556,
    "longitude": 34.2035679,
    "admin": "Malawi",
    "type": "village",
    "source": "osm"
  },
  {
    "name": "Kamuzu Academy",
    "latitude": -13.0300072,
    "longitude": 33.6873554,
    "admin": "Malawi",
    "type": "village",
    "source": "osm"
  },
  {
    "name": "Nkhoma",
    "latitude": -14.0472065,
    "longitude": 34.1063032,
    "admin": "Malawi",
    "type": "village",
    "source": "osm"
  },
  {
    "name": "Nazombe",
    "latitude": -15.7731991,
    "longitude": 35.7669166,
    "admin": "Malawi",
    "type": "village",
    "source": "osm"
  },
  {
    "name": "Chambe",
    "latitude": -15.9041583,
    "longitude": 35.4917435,
    "admin": "Malawi",
    "type": "village",
    "source": "osm"
  },
  {
    "name": "Chisitu",
    "latitude": -15.9979078,
    "longitude": 35.4368118,
    "admin": "Malawi",
    "type": "village",
    "source": "osm"
  },
  {
    "name": "Thawale Self Catering Cottage",
    "latitude": -15.8999182,
    "longitude": 34.7139989,
    "admin": null,
    "type": "chalet",
    "source": "osm"
  },
  {
    "name": "Sani Beach Resort",
    "latitude": -13.0282592,
    "longitude": 34.3329336,
    "admin": null,
    "type": "hotel",
    "source": "osm"
  },
  {
    "name": "Migudu",
    "latitude": -16.6472248,
    "longitude": 35.0452924,
    "admin": null,
    "type": "camp_site",
    "source": "osm"
  },
  {
    "name": "Chipembere",
    "latitude": -16.6296261,
    "longitude": 35.0492406,
    "admin": "Malawi",
    "type": "hamlet",
    "source": "osm"
  },
  {
    "name": "Kafukule",
    "latitude": -11.4675832,
    "longitude": 33.629223,
    "admin": "Malawi",
    "type": "village",
    "source": "osm"
  },
  {
    "name": "Timbiri",
    "latitude": -11.5462158,
    "longitude": 34.1887073,
    "admin": "Malawi",
    "type": "village",
    "source": "osm"
  },
  {
    "name": "Pelete",
    "latitude": -12.9077807,
    "longitude": 33.9072933,
    "admin": "Malawi",
    "type": "village",
    "source": "osm"
  },
  {
    "name": "Mpalawe",
    "latitude": -13.4717584,
    "longitude": 33.6389981,
    "admin": "Malawi",
    "type": "village",
    "source": "osm"
  },
  {
    "name": "Mabulabo",
    "latitude": -12.5969845,
    "longitude": 33.6036049,
    "admin": "Malawi",
    "type": "village",
    "source": "osm"
  },
  {
    "name": "Chipoza",
    "latitude": -13.4137643,
    "longitude": 33.3935139,
    "admin": "Malawi",
    "type": "village",
    "source": "osm"
  },
  {
    "name": "Nyala Lodge Camp Site",
    "latitude": -16.2148073,
    "longitude": 34.7830278,
    "admin": null,
    "type": "camp_site",
    "source": "osm"
  },
  {
    "name": "North Thicket Hide",
    "latitude": -16.2108513,
    "longitude": 34.7527725,
    "admin": null,
    "type": "attraction",
    "source": "osm"
  },
  {
    "name": "Mnyanga",
    "latitude": -14.3090985,
    "longitude": 34.1794709,
    "admin": "Malawi",
    "type": "village",
    "source": "osm"
  },
  {
    "name": "Nkwazi",
    "latitude": -13.9227483,
    "longitude": 33.2288701,
    "admin": null,
    "type": "village",
    "source": "osm"
  },
  {
    "name": "Njuli",
    "latitude": -15.6930929,
    "longitude": 35.1274624,
    "admin": "Malawi",
    "type": "village",
    "source": "osm"
  },
  {
    "name": "Mpokosa",
    "latitude": -14.1522666,
    "longitude": 33.884345,
    "admin": "Malawi",
    "type": "village",
    "source": "osm"
  },
  {
    "name": "Kalumbu",
    "latitude": -14.1352143,
    "longitude": 33.9475109,
    "admin": "Malawi",
    "type": "village",
    "source": "osm"
  },
  {
    "name": "Lozi",
    "latitude": -12.8528364,
    "longitude": 34.2490137,
    "admin": null,
    "type": "village",
    "source": "osm"
  },
  {
    "name": "Thyolo",
    "latitude": -16.0668788,
    "longitude": 35.1485842,
    "admin": "Malawi",
    "type": "town",
    "source": "osm"
  },
  {
    "name": "Chongole",
    "latitude": -13.1296664,
    "longitude": 34.3289997,
    "admin": "Malawi",
    "type": "village",
    "source": "osm"
  },
  {
    "name": "Jenda",
    "latitude": -12.3560576,
    "longitude": 33.5497146,
    "admin": "Malawi",
    "type": "village",
    "source": "osm"
  },
  {
    "name": "Songani",
    "latitude": -15.3156552,
    "longitude": 35.3923359,
    "admin": "Malawi",
    "type": "village",
    "source": "osm"
  },
  {
    "name": "Malosa",
    "latitude": -15.2113233,
    "longitude": 35.355257,
    "admin": "Malawi",
    "type": "village",
    "source": "osm"
  },
  {
    "name": "Viewpoint",
    "latitude": -16.0199137,
    "longitude": 34.8633531,
    "admin": null,
    "type": "attraction",
    "source": "osm"
  },
  {
    "name": "Walkers Ferry",
    "latitude": -15.5124887,
    "longitude": 34.8326134,
    "admin": "Malawi",
    "type": "village",
    "source": "osm"
  },
  {
    "name": "Ngara",
    "latitude": -10.2298702,
    "longitude": 34.1062812,
    "admin": "Malawi",
    "type": "village",
    "source": "osm"
  },
  {
    "name": "Nchewere",
    "latitude": -10.3428659,
    "longitude": 34.1897086,
    "admin": "Malawi",
    "type": "village",
    "source": "osm"
  },
  {
    "name": "Mwase",
    "latitude": -13.0664159,
    "longitude": 33.4387406,
    "admin": "Malawi",
    "type": "village",
    "source": "osm"
  },
  {
    "name": "Chilanga",
    "latitude": -14.0934608,
    "longitude": 34.1957147,
    "admin": "Malawi",
    "type": "village",
    "source": "osm"
  },
  {
    "name": "Konka",
    "latitude": -14.082251,
    "longitude": 34.1667525,
    "admin": "Malawi",
    "type": "village",
    "source": "osm"
  },
  {
    "name": "Kasina Mission",
    "latitude": -14.1390213,
    "longitude": 34.1317336,
    "admin": "Malawi",
    "type": "village",
    "source": "osm"
  },
  {
    "name": "Wovwe",
    "latitude": -10.3141923,
    "longitude": 34.1380728,
    "admin": "Malawi",
    "type": "village",
    "source": "osm"
  },
  {
    "name": "Chana",
    "latitude": -13.8700832,
    "longitude": 34.4528634,
    "admin": "Malawi",
    "type": "village",
    "source": "osm"
  },
  {
    "name": "Mchokela",
    "latitude": -14.0809733,
    "longitude": 34.1188104,
    "admin": "Malawi",
    "type": "village",
    "source": "osm"
  },
  {
    "name": "Mikundi",
    "latitude": -14.072315,
    "longitude": 34.1352899,
    "admin": "Malawi",
    "type": "village",
    "source": "osm"
  },
  {
    "name": "Mapemba",
    "latitude": -14.0972899,
    "longitude": 34.2221422,
    "admin": "Malawi",
    "type": "village",
    "source": "osm"
  },
  {
    "name": "Khombe",
    "latitude": -14.182185,
    "longitude": 34.3182809,
    "admin": "Malawi",
    "type": "village",
    "source": "osm"
  },
  {
    "name": "Mlinga",
    "latitude": -14.2136379,
    "longitude": 34.0867097,
    "admin": "Malawi",
    "type": "village",
    "source": "osm"
  },
  {
    "name": "Chule",
    "latitude": -14.2495788,
    "longitude": 34.0873963,
    "admin": "Malawi",
    "type": "village",
    "source": "osm"
  },
  {
    "name": "Kambuzi",
    "latitude": -14.2612251,
    "longitude": 34.0834481,
    "admin": "Malawi",
    "type": "village",
    "source": "osm"
  },
  {
    "name": "Kamonga",
    "latitude": -14.2839104,
    "longitude": 34.0776325,
    "admin": "Malawi",
    "type": "village",
    "source": "osm"
  },
  {
    "name": "Abrahamu",
    "latitude": -14.3275975,
    "longitude": 34.5460755,
    "admin": "Malawi",
    "type": "village",
    "source": "osm"
  },
  {
    "name": "Ndindi",
    "latitude": -13.9645474,
    "longitude": 34.5137174,
    "admin": "Malawi",
    "type": "village",
    "source": "osm"
  },
  {
    "name": "Ngolomi",
    "latitude": -13.8279154,
    "longitude": 34.4401605,
    "admin": "Malawi",
    "type": "village",
    "source": "osm"
  },
  {
    "name": "Mwankundi",
    "latitude": -13.7682706,
    "longitude": 34.3679903,
    "admin": "Malawi",
    "type": "village",
    "source": "osm"
  },
  {
    "name": "Kapesi",
    "latitude": -14.2441247,
    "longitude": 34.3774317,
    "admin": "Malawi",
    "type": "village",
    "source": "osm"
  },
  {
    "name": "Chimphando",
    "latitude": -14.18555,
    "longitude": 34.281473,
    "admin": "Malawi",
    "type": "village",
    "source": "osm"
  },
  {
    "name": "Milonde",
    "latitude": -14.166743,
    "longitude": 34.2090319,
    "admin": "Malawi",
    "type": "village",
    "source": "osm"
  },
  {
    "name": "Mpata",
    "latitude": -14.1659697,
    "longitude": 34.1735345,
    "admin": "Malawi",
    "type": "village",
    "source": "osm"
  },
  {
    "name": "Puma Filling Station",
    "latitude": -13.9749628,
    "longitude": 33.7569788,
    "admin": null,
    "type": "fuel",
    "source": "osm"
  },
  {
    "name": "Mabuya Camp (formerly Kiboko)",
    "latitude": -13.9993799,
    "longitude": 33.7593248,
    "admin": "Lilongwe",
    "type": "camp_site",
    "source": "osm"
  },
  {
    "name": "Auction Holdings Commodity Exchange (AHCX)",
    "latitude": -13.9825799,
    "longitude": 33.7654171,
    "admin": null,
    "type": "marketplace",
    "source": "osm"
  },
  {
    "name": "Korea Garden Lodge",
    "latitude": -13.9924537,
    "longitude": 33.7635698,
    "admin": null,
    "type": "hotel",
    "source": "osm"
  },
  {
    "name": "Capital Hill",
    "latitude": -13.9475759,
    "longitude": 33.7897449,
    "admin": null,
    "type": "atm",
    "source": "osm"
  },
  {
    "name": "Wendels Guest House",
    "latitude": -13.9557023,
    "longitude": 33.8084625,
    "admin": null,
    "type": "hotel",
    "source": "osm"
  },
  {
    "name": "Kabindiza",
    "latitude": -13.3576127,
    "longitude": 33.8214757,
    "admin": "Malawi",
    "type": "village",
    "source": "osm"
  },
  {
    "name": "Njuci",
    "latitude": -14.3378744,
    "longitude": 33.8955701,
    "admin": "Malawi",
    "type": "village",
    "source": "osm"
  },
  {
    "name": "Puma",
    "latitude": -15.066146,
    "longitude": 35.223747,
    "admin": null,
    "type": "fuel",
    "source": "osm"
  },
  {
    "name": "Chilima",
    "latitude": -13.793948,
    "longitude": 34.116131,
    "admin": "Malawi",
    "type": "village",
    "source": "osm"
  },
  {
    "name": "Chitekwele",
    "latitude": -13.9565372,
    "longitude": 34.1159703,
    "admin": "Malawi",
    "type": "village",
    "source": "osm"
  },
  {
    "name": "Mpeya",
    "latitude": -13.9971825,
    "longitude": 34.0924527,
    "admin": "Malawi",
    "type": "village",
    "source": "osm"
  },
  {
    "name": "Chimamba",
    "latitude": -14.1518685,
    "longitude": 34.158199,
    "admin": "Malawi",
    "type": "village",
    "source": "osm"
  },
  {
    "name": "Linyama",
    "latitude": -14.1077546,
    "longitude": 34.168327,
    "admin": "Malawi",
    "type": "village",
    "source": "osm"
  },
  {
    "name": "Mayani",
    "latitude": -14.0909391,
    "longitude": 34.2483212,
    "admin": "Malawi",
    "type": "village",
    "source": "osm"
  },
  {
    "name": "Maganga",
    "latitude": -14.0538074,
    "longitude": 34.2603375,
    "admin": "Malawi",
    "type": "village",
    "source": "osm"
  },
  {
    "name": "Kapazila",
    "latitude": -14.0141715,
    "longitude": 34.2630841,
    "admin": "malawi",
    "type": "village",
    "source": "osm"
  },
  {
    "name": "Kalibe",
    "latitude": -13.8288912,
    "longitude": 34.331062,
    "admin": "Malawi",
    "type": "village",
    "source": "osm"
  },
  {
    "name": "Mphinzi",
    "latitude": -13.8427257,
    "longitude": 34.3073727,
    "admin": "Malawi",
    "type": "village",
    "source": "osm"
  },
  {
    "name": "Kambwiri",
    "latitude": -13.7877162,
    "longitude": 34.4098545,
    "admin": "Malawi",
    "type": "village",
    "source": "osm"
  },
  {
    "name": "Mkulamwendo",
    "latitude": -14.1884849,
    "longitude": 34.3578411,
    "admin": "Malawi",
    "type": "village",
    "source": "osm"
  },
  {
    "name": "Kanyenda",
    "latitude": -14.2104519,
    "longitude": 34.3600727,
    "admin": "Malawi",
    "type": "village",
    "source": "osm"
  },
  {
    "name": "Magunditsa",
    "latitude": -14.2690202,
    "longitude": 34.3324353,
    "admin": "Malawi",
    "type": "village",
    "source": "osm"
  },
  {
    "name": "Nkomeko",
    "latitude": -14.2547123,
    "longitude": 34.2956997,
    "admin": "Malawi",
    "type": "village",
    "source": "osm"
  },
  {
    "name": "Chitimba",
    "latitude": -14.2405699,
    "longitude": 34.2699505,
    "admin": "Malawi",
    "type": "village",
    "source": "osm"
  },
  {
    "name": "Kankhumba",
    "latitude": -14.2344135,
    "longitude": 34.2706372,
    "admin": "Malawi",
    "type": "village",
    "source": "osm"
  },
  {
    "name": "Chambe Hut",
    "latitude": -15.9081709,
    "longitude": 35.543369,
    "admin": null,
    "type": "alpine_hut",
    "source": "osm"
  },
  {
    "name": "Fort Lister",
    "latitude": -15.8482521,
    "longitude": 35.7050457,
    "admin": "Malawi",
    "type": "village",
    "source": "osm"
  },
  {
    "name": "Abele",
    "latitude": -14.1357399,
    "longitude": 33.6623966,
    "admin": "Malawi",
    "type": "village",
    "source": "osm"
  },
  {
    "name": "Uliwa",
    "latitude": -10.4524968,
    "longitude": 34.2106778,
    "admin": "Malawi",
    "type": "town",
    "source": "osm"
  },
  {
    "name": "Chowe",
    "latitude": -14.4225853,
    "longitude": 35.3809199,
    "admin": "Malawi",
    "type": "village",
    "source": "osm"
  },
  {
    "name": "Idulusi",
    "latitude": -14.3595671,
    "longitude": 35.3972962,
    "admin": null,
    "type": "village",
    "source": "osm"
  },
  {
    "name": "Namwera",
    "latitude": -14.3639217,
    "longitude": 35.5054899,
    "admin": null,
    "type": "village",
    "source": "osm"
  },
  {
    "name": "Chilokoti",
    "latitude": -14.3244243,
    "longitude": 35.5392246,
    "admin": "Malawi",
    "type": "village",
    "source": "osm"
  },
  {
    "name": "Mpingo",
    "latitude": -15.8913146,
    "longitude": 34.8928195,
    "admin": "Malawi",
    "type": "village",
    "source": "osm"
  },
  {
    "name": "Mphatiku",
    "latitude": -15.9284589,
    "longitude": 34.8650962,
    "admin": "Malawi",
    "type": "village",
    "source": "osm"
  },
  {
    "name": "Imbwa",
    "latitude": -15.8529715,
    "longitude": 34.8697794,
    "admin": "Malawi",
    "type": "village",
    "source": "osm"
  },
  {
    "name": "Standard Bank",
    "latitude": -15.3843052,
    "longitude": 35.320187,
    "admin": null,
    "type": "bank",
    "source": "osm"
  },
  {
    "name": "Chibinya",
    "latitude": -13.2246843,
    "longitude": 33.9180805,
    "admin": "Malawi",
    "type": "village",
    "source": "osm"
  },
  {
    "name": "Nyalabvi",
    "latitude": -13.458524,
    "longitude": 33.8851216,
    "admin": "Malawi",
    "type": "village",
    "source": "osm"
  },
  {
    "name": "Chinkhandwe",
    "latitude": -13.4087686,
    "longitude": 33.9369633,
    "admin": "Malawi",
    "type": "village",
    "source": "osm"
  },
  {
    "name": "Chinthembwe",
    "latitude": -13.4331467,
    "longitude": 33.9706089,
    "admin": "Malawi",
    "type": "village",
    "source": "osm"
  },
  {
    "name": "Bowe",
    "latitude": -13.2871394,
    "longitude": 33.6912015,
    "admin": "Malawi",
    "type": "village",
    "source": "osm"
  },
  {
    "name": "Muta Falls",
    "latitude": -12.8557139,
    "longitude": 34.100586,
    "admin": null,
    "type": "attraction",
    "source": "osm"
  },
  {
    "name": "Mpira",
    "latitude": -14.855282,
    "longitude": 34.6432451,
    "admin": "Malawi",
    "type": "village",
    "source": "osm"
  },
  {
    "name": "Nkudzi",
    "latitude": -14.176294,
    "longitude": 34.9988224,
    "admin": "Malawi",
    "type": "village",
    "source": "osm"
  },
  {
    "name": "Kasankha",
    "latitude": -14.1172451,
    "longitude": 34.8627481,
    "admin": "Malawi",
    "type": "village",
    "source": "osm"
  },
  {
    "name": "Chimphamba",
    "latitude": -14.0686453,
    "longitude": 34.8445177,
    "admin": "Malawi",
    "type": "village",
    "source": "osm"
  },
  {
    "name": "Chirombo",
    "latitude": -14.1209613,
    "longitude": 34.9336977,
    "admin": "Malawi",
    "type": "village",
    "source": "osm"
  },
  {
    "name": "Mvunguti",
    "latitude": -14.0362346,
    "longitude": 34.90184,
    "admin": "Malawi",
    "type": "village",
    "source": "osm"
  },
  {
    "name": "Chembe",
    "latitude": -14.0165869,
    "longitude": 34.8492592,
    "admin": "Malawi",
    "type": "village",
    "source": "osm"
  },
  {
    "name": "Chapola",
    "latitude": -15.3376043,
    "longitude": 35.4887073,
    "admin": "Malawi",
    "type": "village",
    "source": "osm"
  },
  {
    "name": "Zolokere",
    "latitude": -10.8549294,
    "longitude": 33.4813519,
    "admin": "Malawi",
    "type": "village",
    "source": "osm"
  },
  {
    "name": "Nkopola",
    "latitude": -14.3176478,
    "longitude": 35.1296521,
    "admin": "Malawi",
    "type": "village",
    "source": "osm"
  },
  {
    "name": "Mpatamanga Gorge",
    "latitude": -15.7222626,
    "longitude": 34.7279073,
    "admin": null,
    "type": "attraction",
    "source": "osm"
  },
  {
    "name": "Tukombo",
    "latitude": -12.08565,
    "longitude": 34.0545979,
    "admin": "Malawi",
    "type": "village",
    "source": "osm"
  },
  {
    "name": "Mbawa",
    "latitude": -12.0874661,
    "longitude": 33.3869229,
    "admin": "Malawi",
    "type": "village",
    "source": "osm"
  },
  {
    "name": "Dwangwa",
    "latitude": -12.506334,
    "longitude": 34.1096334,
    "admin": null,
    "type": "village",
    "source": "osm"
  },
  {
    "name": "Liwaladzi",
    "latitude": -12.615159,
    "longitude": 34.1626327,
    "admin": null,
    "type": "village",
    "source": "osm"
  },
  {
    "name": "Nkhunga",
    "latitude": -12.4755986,
    "longitude": 34.1048992,
    "admin": null,
    "type": "village",
    "source": "osm"
  },
  {
    "name": "Wimbe",
    "latitude": -12.9853902,
    "longitude": 33.6923324,
    "admin": "Malawi",
    "type": "village",
    "source": "osm"
  },
  {
    "name": "Chamama",
    "latitude": -12.9214576,
    "longitude": 33.7648579,
    "admin": "Malawi",
    "type": "village",
    "source": "osm"
  },
  {
    "name": "Nsipe",
    "latitude": -14.8710636,
    "longitude": 34.7484271,
    "admin": "Malawi",
    "type": "village",
    "source": "osm"
  },
  {
    "name": "Ntela",
    "latitude": -14.6161678,
    "longitude": 35.1830724,
    "admin": "Malawi",
    "type": "village",
    "source": "osm"
  },
  {
    "name": "Kankao",
    "latitude": -15.0541412,
    "longitude": 34.9218335,
    "admin": "Malawi",
    "type": "village",
    "source": "osm"
  },
  {
    "name": "Phalula",
    "latitude": -15.2249522,
    "longitude": 34.8896848,
    "admin": "Malawi",
    "type": "village",
    "source": "osm"
  },
  {
    "name": "Tedzani Falls",
    "latitude": -15.5559899,
    "longitude": 34.7789559,
    "admin": null,
    "type": "attraction",
    "source": "osm"
  },
  {
    "name": "Tengani",
    "latitude": -16.7324541,
    "longitude": 35.2596072,
    "admin": "Malawi",
    "type": "village",
    "source": "osm"
  },
  {
    "name": "Nselema",
    "latitude": -14.7178064,
    "longitude": 35.5517022,
    "admin": null,
    "type": "village",
    "source": "osm"
  },
  {
    "name": "Bembeke",
    "latitude": -14.3461749,
    "longitude": 34.4208546,
    "admin": "Malawi",
    "type": "village",
    "source": "osm"
  },
  {
    "name": "Langeni",
    "latitude": -12.5797284,
    "longitude": 33.6071239,
    "admin": "Malawi",
    "type": "village",
    "source": "osm"
  },
  {
    "name": "Kaluluma",
    "latitude": -12.5817922,
    "longitude": 33.5190174,
    "admin": "Malawi",
    "type": "village",
    "source": "osm"
  },
  {
    "name": "Zikheta",
    "latitude": -12.5943573,
    "longitude": 33.5176441,
    "admin": "Malawi",
    "type": "village",
    "source": "osm"
  },
  {
    "name": "Chisemphere",
    "latitude": -12.6266887,
    "longitude": 33.5155842,
    "admin": "Malawi",
    "type": "village",
    "source": "osm"
  },
  {
    "name": "Jere",
    "latitude": -12.6307089,
    "longitude": 33.498933,
    "admin": "Malawi",
    "type": "village",
    "source": "osm"
  },
  {
    "name": "Mponda",
    "latitude": -14.4583889,
    "longitude": 35.2446415,
    "admin": null,
    "type": "village",
    "source": "osm"
  },
  {
    "name": "Nkope",
    "latitude": -14.1967449,
    "longitude": 35.0358396,
    "admin": "Malawi",
    "type": "village",
    "source": "osm"
  },
  {
    "name": "Namalaka",
    "latitude": -14.121235,
    "longitude": 35.1937929,
    "admin": "Malawi",
    "type": "village",
    "source": "osm"
  },
  {
    "name": "Bamantha",
    "latitude": -10.948229,
    "longitude": 33.7449001,
    "admin": "Malawi",
    "type": "village",
    "source": "osm"
  },
  {
    "name": "Mwachanda",
    "latitude": -10.9586781,
    "longitude": 33.6497997,
    "admin": "Malawi",
    "type": "village",
    "source": "osm"
  },
  {
    "name": "Lularwe",
    "latitude": -10.9450267,
    "longitude": 33.5802768,
    "admin": "Malawi",
    "type": "village",
    "source": "osm"
  },
  {
    "name": "Zunguza",
    "latitude": -11.0222074,
    "longitude": 33.5821651,
    "admin": "Malawi",
    "type": "village",
    "source": "osm"
  },
  {
    "name": "Msowoya",
    "latitude": -11.0375401,
    "longitude": 33.9349292,
    "admin": "Malawi",
    "type": "village",
    "source": "osm"
  },
  {
    "name": "Luwagha",
    "latitude": -10.8898301,
    "longitude": 33.9797212,
    "admin": "Malawi",
    "type": "village",
    "source": "osm"
  },
  {
    "name": "Engucwini",
    "latitude": -11.1985322,
    "longitude": 33.8216907,
    "admin": "Malawi",
    "type": "village",
    "source": "osm"
  },
  {
    "name": "Mpherapi",
    "latitude": -11.1582793,
    "longitude": 33.6523174,
    "admin": "Malawi",
    "type": "village",
    "source": "osm"
  },
  {
    "name": "Malisawa Ngwira",
    "latitude": -11.1099156,
    "longitude": 33.7256992,
    "admin": "Malawi",
    "type": "village",
    "source": "osm"
  },
  {
    "name": "Mujuma Nyasulu",
    "latitude": -11.1429262,
    "longitude": 33.7142109,
    "admin": "Malawi",
    "type": "village",
    "source": "osm"
  },
  {
    "name": "Chimzinga",
    "latitude": -12.3938625,
    "longitude": 33.5392712,
    "admin": "Malawi",
    "type": "village",
    "source": "osm"
  },
  {
    "name": "Eheleni",
    "latitude": -12.3115314,
    "longitude": 33.6035191,
    "admin": "Malawi",
    "type": "village",
    "source": "osm"
  },
  {
    "name": "Kamando",
    "latitude": -12.4606658,
    "longitude": 33.6715923,
    "admin": "Malawi",
    "type": "village",
    "source": "osm"
  },
  {
    "name": "Makhuwila Nkhoma",
    "latitude": -12.423741,
    "longitude": 33.7592327,
    "admin": "Malawi",
    "type": "village",
    "source": "osm"
  },
  {
    "name": "Kamdidi",
    "latitude": -12.5132313,
    "longitude": 33.4642634,
    "admin": "Malawi",
    "type": "village",
    "source": "osm"
  },
  {
    "name": "Kasichi",
    "latitude": -12.5329649,
    "longitude": 33.4949419,
    "admin": "Malawi",
    "type": "village",
    "source": "osm"
  },
  {
    "name": "Chimenya",
    "latitude": -12.4329647,
    "longitude": 33.5308109,
    "admin": "Malawi",
    "type": "village",
    "source": "osm"
  },
  {
    "name": "Silimoni",
    "latitude": -12.5317919,
    "longitude": 33.6052357,
    "admin": "Malawi",
    "type": "village",
    "source": "osm"
  },
  {
    "name": "Mazweni",
    "latitude": -12.5575401,
    "longitude": 33.5842441,
    "admin": "Malawi",
    "type": "village",
    "source": "osm"
  },
  {
    "name": "Kalioka",
    "latitude": -12.5351433,
    "longitude": 33.5124514,
    "admin": "Malawi",
    "type": "village",
    "source": "osm"
  },
  {
    "name": "Kapindula",
    "latitude": -12.41955,
    "longitude": 33.7128376,
    "admin": "Malawi",
    "type": "village",
    "source": "osm"
  },
  {
    "name": "Nkhata",
    "latitude": -12.6590445,
    "longitude": 33.6826992,
    "admin": "Malawi",
    "type": "village",
    "source": "osm"
  },
  {
    "name": "Chiwandauka",
    "latitude": -12.6548573,
    "longitude": 33.657465,
    "admin": "Malawi",
    "type": "village",
    "source": "osm"
  },
  {
    "name": "Chirwa",
    "latitude": -12.6449751,
    "longitude": 33.5108661,
    "admin": "Malawi",
    "type": "village",
    "source": "osm"
  },
  {
    "name": "Kelula",
    "latitude": -12.5843337,
    "longitude": 33.5074329,
    "admin": "Malawi",
    "type": "village",
    "source": "osm"
  },
  {
    "name": "Emfeni",
    "latitude": -12.5929354,
    "longitude": 33.5839041,
    "admin": "Malawi",
    "type": "village",
    "source": "osm"
  },
  {
    "name": "Deni",
    "latitude": -12.4863168,
    "longitude": 33.6094044,
    "admin": "Malawi",
    "type": "village",
    "source": "osm"
  },
  {
    "name": "Kakware",
    "latitude": -12.5053324,
    "longitude": 33.5284608,
    "admin": "Malawi",
    "type": "village",
    "source": "osm"
  },
  {
    "name": "Warika",
    "latitude": -11.2772396,
    "longitude": 33.4351024,
    "admin": "Malawi",
    "type": "village",
    "source": "osm"
  },
  {
    "name": "Bota",
    "latitude": -11.2632664,
    "longitude": 33.4086666,
    "admin": "Malawi",
    "type": "village",
    "source": "osm"
  },
  {
    "name": "Emcisweni",
    "latitude": -11.2863849,
    "longitude": 33.6077708,
    "admin": "Malawi",
    "type": "village",
    "source": "osm"
  },
  {
    "name": "Daniel Jere",
    "latitude": -11.2415501,
    "longitude": 33.6173008,
    "admin": "Malawi",
    "type": "village",
    "source": "osm"
  },
  {
    "name": "Zebediya Makwakwa",
    "latitude": -11.2272746,
    "longitude": 33.7073112,
    "admin": "Malawi",
    "type": "village",
    "source": "osm"
  },
  {
    "name": "Ziwuya Lungu",
    "latitude": -11.2279481,
    "longitude": 33.6607288,
    "admin": "Malawi",
    "type": "village",
    "source": "osm"
  },
  {
    "name": "Red Zebra",
    "latitude": -13.717614,
    "longitude": 34.6226328,
    "admin": null,
    "type": "restaurant",
    "source": "osm"
  },
  {
    "name": "Namanja",
    "latitude": -14.9648425,
    "longitude": 35.6782693,
    "admin": "Malawi",
    "type": "village",
    "source": "osm"
  },
  {
    "name": "Chamba",
    "latitude": -15.9052829,
    "longitude": 34.9162279,
    "admin": "Malawi",
    "type": "village",
    "source": "osm"
  },
  {
    "name": "Padzuwa",
    "latitude": -15.8926088,
    "longitude": 34.8409441,
    "admin": "Malawi",
    "type": "village",
    "source": "osm"
  },
  {
    "name": "Mubanga",
    "latitude": -9.7848309,
    "longitude": 33.3287247,
    "admin": "Malawi",
    "type": "village",
    "source": "osm"
  },
  {
    "name": "Mitundu",
    "latitude": -14.248669,
    "longitude": 33.7787688,
    "admin": "Malawi",
    "type": "town",
    "source": "osm"
  },
  {
    "name": "Pemba",
    "latitude": -13.8242178,
    "longitude": 34.520734,
    "admin": "Malawi",
    "type": "village",
    "source": "osm"
  },
  {
    "name": "Kachulu",
    "latitude": -13.6353497,
    "longitude": 34.5223648,
    "admin": "Malawi",
    "type": "village",
    "source": "osm"
  },
  {
    "name": "National Bank",
    "latitude": -15.7884269,
    "longitude": 35.0051153,
    "admin": null,
    "type": "bank",
    "source": "osm"
  },
  {
    "name": "Stanbic Bank",
    "latitude": -15.7848781,
    "longitude": 35.0057252,
    "admin": "Blantyre",
    "type": "bank",
    "source": "osm"
  },
  {
    "name": "Puma",
    "latitude": -15.7861902,
    "longitude": 35.0158449,
    "admin": null,
    "type": "fuel",
    "source": "osm"
  },
  {
    "name": "University of Malawi Medical College",
    "latitude": -15.8016626,
    "longitude": 35.0162746,
    "admin": null,
    "type": "university",
    "source": "osm"
  },
  {
    "name": "Maula Pharmacies",
    "latitude": -13.9814862,
    "longitude": 33.7629288,
    "admin": null,
    "type": "pharmacy",
    "source": "osm"
  },
  {
    "name": "National Bank",
    "latitude": -13.9867225,
    "longitude": 33.7678508,
    "admin": null,
    "type": "bank",
    "source": "osm"
  },
  {
    "name": "Total",
    "latitude": -13.9757073,
    "longitude": 33.7586135,
    "admin": null,
    "type": "fuel",
    "source": "osm"
  },
  {
    "name": "Kasina",
    "latitude": -14.0641607,
    "longitude": 33.9594489,
    "admin": "Malawi",
    "type": "village",
    "source": "osm"
  },
  {
    "name": "Mchochoma",
    "latitude": -14.3990934,
    "longitude": 34.4365838,
    "admin": "Malawi",
    "type": "village",
    "source": "osm"
  },
  {
    "name": "Kalilombe",
    "latitude": -14.3877444,
    "longitude": 34.4099628,
    "admin": "Malawi",
    "type": "village",
    "source": "osm"
  },
  {
    "name": "Mwala wa Nkhondo",
    "latitude": -14.3941067,
    "longitude": 34.3912287,
    "admin": null,
    "type": "village",
    "source": "osm"
  },
  {
    "name": "Kamwenya Gwaza",
    "latitude": -14.3669346,
    "longitude": 34.440349,
    "admin": "Malawi",
    "type": "village",
    "source": "osm"
  },
  {
    "name": "Ngonoonda",
    "latitude": -14.3241932,
    "longitude": 34.4432672,
    "admin": "Malawi",
    "type": "village",
    "source": "osm"
  },
  {
    "name": "Kasumbu",
    "latitude": -14.3050734,
    "longitude": 34.3519741,
    "admin": "Malawi",
    "type": "village",
    "source": "osm"
  },
  {
    "name": "Kabulika",
    "latitude": -14.4262322,
    "longitude": 34.5800555,
    "admin": "Malawi",
    "type": "village",
    "source": "osm"
  },
  {
    "name": "Kawinga",
    "latitude": -14.85336,
    "longitude": 35.5720988,
    "admin": "Malawi",
    "type": "village",
    "source": "osm"
  },
  {
    "name": "Nambuma",
    "latitude": -13.704086,
    "longitude": 33.6014591,
    "admin": "Malawi",
    "type": "village",
    "source": "osm"
  },
  {
    "name": "Kachebere",
    "latitude": -13.7726165,
    "longitude": 32.8253542,
    "admin": "Malawi",
    "type": "village",
    "source": "osm"
  },
  {
    "name": "Nguludi",
    "latitude": -15.8018995,
    "longitude": 35.1674725,
    "admin": "Malawi",
    "type": "village",
    "source": "osm"
  },
  {
    "name": "Nkaya",
    "latitude": -15.1339997,
    "longitude": 35.0274451,
    "admin": "Malawi",
    "type": "village",
    "source": "osm"
  },
  {
    "name": "Donjia Nkhoma",
    "latitude": -12.1736805,
    "longitude": 33.6954673,
    "admin": "Malawi",
    "type": "village",
    "source": "osm"
  },
  {
    "name": "Njewa",
    "latitude": -13.71447,
    "longitude": 33.8952178,
    "admin": "Malawi",
    "type": "village",
    "source": "osm"
  },
  {
    "name": "Chimombo",
    "latitude": -13.5529484,
    "longitude": 33.8952158,
    "admin": "Malawi",
    "type": "village",
    "source": "osm"
  },
  {
    "name": "Mbingwa",
    "latitude": -13.5532068,
    "longitude": 33.5119381,
    "admin": "Malawi",
    "type": "village",
    "source": "osm"
  },
  {
    "name": "Nakutepa",
    "latitude": -13.5795491,
    "longitude": 33.8679803,
    "admin": "Malawi",
    "type": "village",
    "source": "osm"
  },
  {
    "name": "Kazembe",
    "latitude": -12.6498072,
    "longitude": 33.7006012,
    "admin": "Malawi",
    "type": "village",
    "source": "osm"
  },
  {
    "name": "Zowe",
    "latitude": -14.0258296,
    "longitude": 33.9534423,
    "admin": "Malawi",
    "type": "village",
    "source": "osm"
  },
  {
    "name": "Makata",
    "latitude": -15.6299561,
    "longitude": 35.0791474,
    "admin": "Malawi",
    "type": "village",
    "source": "osm"
  },
  {
    "name": "Chiwengo",
    "latitude": -13.0907476,
    "longitude": 33.5306858,
    "admin": "Malawi",
    "type": "village",
    "source": "osm"
  },
  {
    "name": "Mphunga",
    "latitude": -13.6522632,
    "longitude": 34.2833597,
    "admin": "Malawi",
    "type": "village",
    "source": "osm"
  },
  {
    "name": "Dzoole",
    "latitude": -14.0313093,
    "longitude": 33.4825359,
    "admin": null,
    "type": "village",
    "source": "osm"
  },
  {
    "name": "Khonjeni",
    "latitude": -16.0989201,
    "longitude": 35.2691777,
    "admin": "Malawi",
    "type": "village",
    "source": "osm"
  },
  {
    "name": "Katimba",
    "latitude": -13.282874,
    "longitude": 33.7640307,
    "admin": "Malawi",
    "type": "village",
    "source": "osm"
  },
  {
    "name": "Kaphuka",
    "latitude": -14.1485093,
    "longitude": 34.1818563,
    "admin": "Malawi",
    "type": "village",
    "source": "osm"
  },
  {
    "name": "Nankumba",
    "latitude": -14.3653661,
    "longitude": 34.8167,
    "admin": null,
    "type": "village",
    "source": "osm"
  },
  {
    "name": "Maganga",
    "latitude": -13.8516166,
    "longitude": 34.5627858,
    "admin": "Malawi",
    "type": "village",
    "source": "osm"
  },
  {
    "name": "Chiwaula",
    "latitude": -13.912951,
    "longitude": 33.0150692,
    "admin": "Malawi",
    "type": "village",
    "source": "osm"
  },
  {
    "name": "Kafulama",
    "latitude": -13.9041197,
    "longitude": 32.9906933,
    "admin": "Malawi",
    "type": "village",
    "source": "osm"
  },
  {
    "name": "Mpomba",
    "latitude": -13.8761239,
    "longitude": 33.0052845,
    "admin": "Malawi",
    "type": "village",
    "source": "osm"
  },
  {
    "name": "Mlonyeni",
    "latitude": -13.8597914,
    "longitude": 33.0281155,
    "admin": "Malawi",
    "type": "village",
    "source": "osm"
  },
  {
    "name": "Sampale",
    "latitude": -13.86075,
    "longitude": 32.9579774,
    "admin": "Malawi",
    "type": "village",
    "source": "osm"
  },
  {
    "name": "Malambo",
    "latitude": -13.2167836,
    "longitude": 33.7623226,
    "admin": "Malawi",
    "type": "village",
    "source": "osm"
  },
  {
    "name": "Kadifula",
    "latitude": -13.1578012,
    "longitude": 33.6205608,
    "admin": "Malawi",
    "type": "village",
    "source": "osm"
  },
  {
    "name": "Mphekesa",
    "latitude": -13.1964068,
    "longitude": 33.6583744,
    "admin": "Malawi",
    "type": "village",
    "source": "osm"
  },
  {
    "name": "Nduwa",
    "latitude": -12.9610759,
    "longitude": 33.6208157,
    "admin": "Malawi",
    "type": "village",
    "source": "osm"
  },
  {
    "name": "Magomero",
    "latitude": -15.6068614,
    "longitude": 35.2658298,
    "admin": "Malawi",
    "type": "village",
    "source": "osm"
  },
  {
    "name": "Chiwale",
    "latitude": -14.2177816,
    "longitude": 33.6500858,
    "admin": "Malawi",
    "type": "village",
    "source": "osm"
  },
  {
    "name": "Kulizamimba",
    "latitude": -14.1962759,
    "longitude": 33.6391437,
    "admin": "Malawi",
    "type": "village",
    "source": "osm"
  },
  {
    "name": "Chasowa",
    "latitude": -14.2008524,
    "longitude": 33.6005199,
    "admin": "Malawi",
    "type": "village",
    "source": "osm"
  },
  {
    "name": "Tenga",
    "latitude": -14.1137866,
    "longitude": 33.6813259,
    "admin": "Malawi",
    "type": "village",
    "source": "osm"
  },
  {
    "name": "Malili",
    "latitude": -14.0823086,
    "longitude": 33.6950437,
    "admin": "Malawi",
    "type": "village",
    "source": "osm"
  },
  {
    "name": "Chirinza",
    "latitude": -14.0218936,
    "longitude": 33.6302089,
    "admin": "Malawi",
    "type": "village",
    "source": "osm"
  },
  {
    "name": "Bwatalika",
    "latitude": -13.982976,
    "longitude": 33.5667344,
    "admin": "Malawi",
    "type": "village",
    "source": "osm"
  },
  {
    "name": "Hangeni",
    "latitude": -12.498653,
    "longitude": 33.5701494,
    "admin": "Malawi",
    "type": "village",
    "source": "osm"
  },
  {
    "name": "Kajosi",
    "latitude": -12.5664356,
    "longitude": 33.4995108,
    "admin": "Malawi",
    "type": "village",
    "source": "osm"
  },
  {
    "name": "Magunje",
    "latitude": -12.5820461,
    "longitude": 33.3815591,
    "admin": "Malawi",
    "type": "village",
    "source": "osm"
  },
  {
    "name": "Benula",
    "latitude": -12.7464003,
    "longitude": 33.5487125,
    "admin": "Malawi",
    "type": "village",
    "source": "osm"
  },
  {
    "name": "Chauwa",
    "latitude": -13.7350509,
    "longitude": 33.8997425,
    "admin": "Malawi",
    "type": "village",
    "source": "osm"
  },
  {
    "name": "Bvumbwe",
    "latitude": -15.9428201,
    "longitude": 35.026691,
    "admin": null,
    "type": "village",
    "source": "osm"
  },
  {
    "name": "Chingali",
    "latitude": -15.4005792,
    "longitude": 35.1816692,
    "admin": "Malawi",
    "type": "village",
    "source": "osm"
  },
  {
    "name": "Sangala",
    "latitude": -15.3782359,
    "longitude": 35.1255359,
    "admin": "Malawi",
    "type": "village",
    "source": "osm"
  },
  {
    "name": "Machinjiri",
    "latitude": -15.2355766,
    "longitude": 35.4172953,
    "admin": "Malawi",
    "type": "village",
    "source": "osm"
  },
  {
    "name": "Mtandizi",
    "latitude": -14.8461007,
    "longitude": 34.6856174,
    "admin": "Malawi",
    "type": "village",
    "source": "osm"
  },
  {
    "name": "Katumba",
    "latitude": -14.7238882,
    "longitude": 34.6853406,
    "admin": "Malawi",
    "type": "village",
    "source": "osm"
  },
  {
    "name": "Chakhumbira",
    "latitude": -14.570571,
    "longitude": 34.7042057,
    "admin": "Malawi",
    "type": "village",
    "source": "osm"
  },
  {
    "name": "Citsulu",
    "latitude": -14.6747541,
    "longitude": 34.7856174,
    "admin": "Malawi",
    "type": "village",
    "source": "osm"
  },
  {
    "name": "Mkutumula",
    "latitude": -14.8442651,
    "longitude": 34.8951721,
    "admin": "Malawi",
    "type": "village",
    "source": "osm"
  },
  {
    "name": "Nsonde",
    "latitude": -14.7659768,
    "longitude": 35.6703943,
    "admin": "Malawi",
    "type": "village",
    "source": "osm"
  },
  {
    "name": "Chulu",
    "latitude": -12.8241485,
    "longitude": 33.3069523,
    "admin": "Malawi",
    "type": "village",
    "source": "osm"
  },
  {
    "name": "Kawamba",
    "latitude": -13.2961994,
    "longitude": 33.341411,
    "admin": "Malawi",
    "type": "village",
    "source": "osm"
  },
  {
    "name": "Mtanga",
    "latitude": -13.2808294,
    "longitude": 33.3863863,
    "admin": "Malawi",
    "type": "village",
    "source": "osm"
  },
  {
    "name": "Maripela",
    "latitude": -13.2642773,
    "longitude": 33.2681591,
    "admin": "Malawi",
    "type": "village",
    "source": "osm"
  },
  {
    "name": "Linyangwa",
    "latitude": -13.1197929,
    "longitude": 33.2912823,
    "admin": "Malawi",
    "type": "village",
    "source": "osm"
  },
  {
    "name": "Bokosi Dindi",
    "latitude": -11.9312426,
    "longitude": 33.5044203,
    "admin": "Malawi",
    "type": "village",
    "source": "osm"
  },
  {
    "name": "Mbambo",
    "latitude": -12.7002599,
    "longitude": 33.4885268,
    "admin": "Malawi",
    "type": "village",
    "source": "osm"
  },
  {
    "name": "Chandiwira Moyo",
    "latitude": -11.0635833,
    "longitude": 33.9166142,
    "admin": "Malawi",
    "type": "village",
    "source": "osm"
  },
  {
    "name": "Nkhamenya",
    "latitude": -12.5666162,
    "longitude": 33.5136959,
    "admin": "Malawi",
    "type": "village",
    "source": "osm"
  },
  {
    "name": "Madisi",
    "latitude": -13.4157816,
    "longitude": 33.6074673,
    "admin": "Malawi",
    "type": "village",
    "source": "osm"
  },
  {
    "name": "Madisi",
    "latitude": -11.2644272,
    "longitude": 33.7820125,
    "admin": "Malawi",
    "type": "village",
    "source": "osm"
  },
  {
    "name": "Chisi Point",
    "latitude": -11.663926,
    "longitude": 34.3265193,
    "admin": "Malawi",
    "type": "village",
    "source": "osm"
  },
  {
    "name": "Mazambuka Lodge",
    "latitude": -11.605465,
    "longitude": 34.2978849,
    "admin": null,
    "type": "guest_house",
    "source": "osm"
  },
  {
    "name": "Chipalanje",
    "latitude": -15.3994208,
    "longitude": 34.9397373,
    "admin": "Malawi",
    "type": "village",
    "source": "osm"
  },
  {
    "name": "Ndelema",
    "latitude": -15.51364,
    "longitude": 34.7335575,
    "admin": "Malawi",
    "type": "village",
    "source": "osm"
  },
  {
    "name": "Kunthembwe",
    "latitude": -15.6654604,
    "longitude": 34.8837292,
    "admin": "Malawi",
    "type": "village",
    "source": "osm"
  },
  {
    "name": "Katema",
    "latitude": -14.5150382,
    "longitude": 35.0531269,
    "admin": "Malawi",
    "type": "village",
    "source": "osm"
  },
  {
    "name": "Masaula",
    "latitude": -15.3236536,
    "longitude": 35.1165283,
    "admin": "Malawi",
    "type": "village",
    "source": "osm"
  },
  {
    "name": "Namatunu",
    "latitude": -15.3951626,
    "longitude": 35.0670899,
    "admin": "Malawi",
    "type": "village",
    "source": "osm"
  },
  {
    "name": "Kweneza",
    "latitude": -15.2529443,
    "longitude": 34.5989889,
    "admin": null,
    "type": "village",
    "source": "osm"
  },
  {
    "name": "Kamchocho",
    "latitude": -11.6646826,
    "longitude": 33.4113785,
    "admin": "Malawi",
    "type": "village",
    "source": "osm"
  },
  {
    "name": "Migowi",
    "latitude": -15.7190171,
    "longitude": 35.6864215,
    "admin": "Malawi",
    "type": "village",
    "source": "osm"
  },
  {
    "name": "Muona",
    "latitude": -16.4096194,
    "longitude": 35.1641251,
    "admin": null,
    "type": "village",
    "source": "osm"
  },
  {
    "name": "Kenan Ngomba",
    "latitude": -10.0678816,
    "longitude": 33.6813274,
    "admin": "Malawi",
    "type": "village",
    "source": "osm"
  },
  {
    "name": "Thekerani",
    "latitude": -16.322881,
    "longitude": 35.2053284,
    "admin": "Malawi",
    "type": "village",
    "source": "osm"
  },
  {
    "name": "Nansadi",
    "latitude": -15.8875844,
    "longitude": 35.1981969,
    "admin": null,
    "type": "village",
    "source": "osm"
  },
  {
    "name": "Mkanda",
    "latitude": -13.5182022,
    "longitude": 32.9553215,
    "admin": "Malawi",
    "type": "village",
    "source": "osm"
  },
  {
    "name": "Santhe",
    "latitude": -13.9316339,
    "longitude": 33.4308967,
    "admin": "Malawi",
    "type": "village",
    "source": "osm"
  },
  {
    "name": "Mvera Mission",
    "latitude": -13.731966,
    "longitude": 34.1272919,
    "admin": "Malawi",
    "type": "village",
    "source": "osm"
  },
  {
    "name": "Mvera Mission Hospital",
    "latitude": -13.7301317,
    "longitude": 34.1245453,
    "admin": null,
    "type": "hospital",
    "source": "osm"
  },
  {
    "name": "Mpamba",
    "latitude": -13.5950779,
    "longitude": 33.9640392,
    "admin": "Malawi",
    "type": "village",
    "source": "osm"
  },
  {
    "name": "Nyungwe Hospital",
    "latitude": -10.2874619,
    "longitude": 34.1077203,
    "admin": null,
    "type": "hospital",
    "source": "osm"
  },
  {
    "name": "Ndunde",
    "latitude": -15.6995484,
    "longitude": 35.2413148,
    "admin": "Malawi",
    "type": "village",
    "source": "osm"
  },
  {
    "name": "Matope Bridge",
    "latitude": -15.3869728,
    "longitude": 34.9035976,
    "admin": "Malawi",
    "type": "village",
    "source": "osm"
  },
  {
    "name": "Ntaja Hospital Center",
    "latitude": -14.8731706,
    "longitude": 35.5288368,
    "admin": null,
    "type": "hospital",
    "source": "osm"
  },
  {
    "name": "Mtaja",
    "latitude": -15.595212,
    "longitude": 35.3714928,
    "admin": "malawi",
    "type": "village",
    "source": "osm"
  },
  {
    "name": "National Bank",
    "latitude": -15.3840217,
    "longitude": 35.3208337,
    "admin": null,
    "type": "bank",
    "source": "osm"
  },
  {
    "name": "Puma Chichiri",
    "latitude": -15.8030658,
    "longitude": 35.0353727,
    "admin": "Blantyre",
    "type": "fuel",
    "source": "osm"
  },
  {
    "name": "First Merchants Bank",
    "latitude": -15.7854413,
    "longitude": 35.0069921,
    "admin": null,
    "type": "bank",
    "source": "osm"
  },
  {
    "name": "Sambani Lodge",
    "latitude": -11.8676566,
    "longitude": 34.1734274,
    "admin": null,
    "type": "lodge",
    "source": "osm"
  },
  {
    "name": "Mdoka",
    "latitude": -10.2893,
    "longitude": 34.1756283,
    "admin": "Malawi",
    "type": "village",
    "source": "osm"
  },
  {
    "name": "Dyanyama",
    "latitude": -15.6750598,
    "longitude": 35.4403163,
    "admin": "Malawi",
    "type": "village",
    "source": "osm"
  },
  {
    "name": "Chitenjere",
    "latitude": -15.1950303,
    "longitude": 35.3778068,
    "admin": "Malawi",
    "type": "village",
    "source": "osm"
  },
  {
    "name": "Chawesa",
    "latitude": -15.5380963,
    "longitude": 35.5784935,
    "admin": "Malawi",
    "type": "village",
    "source": "osm"
  },
  {
    "name": "Puma",
    "latitude": -15.810552,
    "longitude": 35.0606694,
    "admin": null,
    "type": "fuel",
    "source": "osm"
  },
  {
    "name": "Limbuli Trading Center",
    "latitude": -16.073266,
    "longitude": 35.7152358,
    "admin": "Malawi",
    "type": "village",
    "source": "osm"
  },
  {
    "name": "Mibanga",
    "latitude": -10.1281203,
    "longitude": 33.7067065,
    "admin": "Malawi",
    "type": "village",
    "source": "osm"
  },
  {
    "name": "Mahowe",
    "latitude": -10.1811776,
    "longitude": 33.6941752,
    "admin": "Malawi",
    "type": "village",
    "source": "osm"
  },
  {
    "name": "Karopa",
    "latitude": -10.2139539,
    "longitude": 33.6454234,
    "admin": "Malawi",
    "type": "village",
    "source": "osm"
  },
  {
    "name": "Gondoli",
    "latitude": -11.9138446,
    "longitude": 34.0972534,
    "admin": "Malawi",
    "type": "village",
    "source": "osm"
  },
  {
    "name": "Kavuzi Trading Center",
    "latitude": -11.5262223,
    "longitude": 34.0839234,
    "admin": "Malawi",
    "type": "village",
    "source": "osm"
  },
  {
    "name": "Kapeska",
    "latitude": -11.9079281,
    "longitude": 34.1570425,
    "admin": "Malawi",
    "type": "village",
    "source": "osm"
  },
  {
    "name": "Mutchaya",
    "latitude": -11.9107836,
    "longitude": 34.1621065,
    "admin": "Malawi",
    "type": "village",
    "source": "osm"
  },
  {
    "name": "Kamwala",
    "latitude": -11.9281674,
    "longitude": 34.1696596,
    "admin": "Malawi",
    "type": "village",
    "source": "osm"
  },
  {
    "name": "University of Malawi - Chancellor College Campus",
    "latitude": -15.3892494,
    "longitude": 35.3372268,
    "admin": null,
    "type": "university",
    "source": "osm"
  },
  {
    "name": "Chigukumile Trading Center",
    "latitude": -15.5472712,
    "longitude": 35.5753177,
    "admin": "Malawi",
    "type": "village",
    "source": "osm"
  },
  {
    "name": "Visanza",
    "latitude": -13.3495824,
    "longitude": 33.9205624,
    "admin": "Malawi",
    "type": "village",
    "source": "osm"
  },
  {
    "name": "Somba",
    "latitude": -14.6529064,
    "longitude": 35.5438572,
    "admin": null,
    "type": "village",
    "source": "osm"
  },
  {
    "name": "Mpalo",
    "latitude": -13.4835835,
    "longitude": 33.8424627,
    "admin": "Malawi",
    "type": "village",
    "source": "osm"
  },
  {
    "name": "Mvera",
    "latitude": -13.7553512,
    "longitude": 34.2554907,
    "admin": "Malawi",
    "type": "village",
    "source": "osm"
  },
  {
    "name": "Thambani",
    "latitude": -15.7273579,
    "longitude": 34.4002575,
    "admin": null,
    "type": "village",
    "source": "osm"
  },
  {
    "name": "Mufwa Lodge",
    "latitude": -9.9374097,
    "longitude": 33.944684,
    "admin": null,
    "type": "hotel",
    "source": "osm"
  },
  {
    "name": "Lukwe Lodge",
    "latitude": -10.585583,
    "longitude": 34.1277736,
    "admin": null,
    "type": "hotel",
    "source": "osm"
  },
  {
    "name": "Ngala Lodge",
    "latitude": -12.3586482,
    "longitude": 34.0660806,
    "admin": null,
    "type": "hotel",
    "source": "osm"
  },
  {
    "name": "Garden Cottage",
    "latitude": -13.8205876,
    "longitude": 34.586592,
    "admin": null,
    "type": "hotel",
    "source": "osm"
  },
  {
    "name": "Likabula Campsite",
    "latitude": -15.9397933,
    "longitude": 35.5002465,
    "admin": null,
    "type": "camp_site",
    "source": "osm"
  },
  {
    "name": "Likhubala Forest Lodge",
    "latitude": -15.9377774,
    "longitude": 35.5010039,
    "admin": null,
    "type": "alpine_hut",
    "source": "osm"
  },
  {
    "name": "Mtemwende",
    "latitude": -14.157407,
    "longitude": 34.2719357,
    "admin": "Malawi",
    "type": "village",
    "source": "osm"
  },
  {
    "name": "Taweya",
    "latitude": -14.1993812,
    "longitude": 34.2481287,
    "admin": "Malawi",
    "type": "village",
    "source": "osm"
  },
  {
    "name": "Kanchitu",
    "latitude": -14.3488321,
    "longitude": 34.3962299,
    "admin": "Malawi",
    "type": "village",
    "source": "osm"
  },
  {
    "name": "Chinkwita",
    "latitude": -14.3007063,
    "longitude": 34.4197901,
    "admin": "Malawi",
    "type": "village",
    "source": "osm"
  },
  {
    "name": "Gwenembe",
    "latitude": -14.0621208,
    "longitude": 34.1076389,
    "admin": "Malawi",
    "type": "village",
    "source": "osm"
  },
  {
    "name": "Mchirazaguru",
    "latitude": -14.0141589,
    "longitude": 34.1057507,
    "admin": "Malawi",
    "type": "village",
    "source": "osm"
  },
  {
    "name": "Chingodi",
    "latitude": -14.0606222,
    "longitude": 34.0599171,
    "admin": "Malawi",
    "type": "village",
    "source": "osm"
  },
  {
    "name": "Mkhalala",
    "latitude": -14.0927579,
    "longitude": 34.0899578,
    "admin": "Malawi",
    "type": "village",
    "source": "osm"
  },
  {
    "name": "Nadulu",
    "latitude": -14.2131019,
    "longitude": 34.0672985,
    "admin": "Malawi",
    "type": "village",
    "source": "osm"
  },
  {
    "name": "Nyombe",
    "latitude": -14.2611883,
    "longitude": 34.1091839,
    "admin": "Malawi",
    "type": "village",
    "source": "osm"
  },
  {
    "name": "Chiowa",
    "latitude": -14.044506,
    "longitude": 34.1517611,
    "admin": "Malawi",
    "type": "village",
    "source": "osm"
  },
  {
    "name": "Bembeke",
    "latitude": -14.3999357,
    "longitude": 34.3970652,
    "admin": null,
    "type": "village",
    "source": "osm"
  },
  {
    "name": "Chongoni",
    "latitude": -14.1942312,
    "longitude": 34.1713623,
    "admin": "Malawi",
    "type": "village",
    "source": "osm"
  },
  {
    "name": "Thambolagwa",
    "latitude": -14.4154292,
    "longitude": 34.1652368,
    "admin": "Malawi",
    "type": "village",
    "source": "osm"
  },
  {
    "name": "Kasasanya",
    "latitude": -12.8753512,
    "longitude": 33.4236011,
    "admin": "Malawi",
    "type": "village",
    "source": "osm"
  },
  {
    "name": "Nkhulambe 1",
    "latitude": -15.8539686,
    "longitude": 35.7485718,
    "admin": null,
    "type": "village",
    "source": "osm"
  },
  {
    "name": "Mini Mini",
    "latitude": -16.0576996,
    "longitude": 35.5796355,
    "admin": "Malawi",
    "type": "village",
    "source": "osm"
  },
  {
    "name": "Ntchisi Forest Lodge",
    "latitude": -13.3833792,
    "longitude": 34.0062656,
    "admin": null,
    "type": "hotel",
    "source": "osm"
  },
  {
    "name": "Ntchisi Hospital",
    "latitude": -13.3639647,
    "longitude": 33.9119377,
    "admin": null,
    "type": "hospital",
    "source": "osm"
  },
  {
    "name": "Mwansambo",
    "latitude": -13.3099833,
    "longitude": 34.1178243,
    "admin": "Malawi",
    "type": "village",
    "source": "osm"
  },
  {
    "name": "kasungu District Hospital",
    "latitude": -13.0409561,
    "longitude": 33.4706658,
    "admin": null,
    "type": "hospital",
    "source": "osm"
  },
  {
    "name": "Namitete",
    "latitude": -14.0228755,
    "longitude": 33.3607953,
    "admin": "Malawi",
    "type": "town",
    "source": "osm"
  },
  {
    "name": "Palm Beach Rest Camp",
    "latitude": -14.38995,
    "longitude": 35.2165401,
    "admin": null,
    "type": "camp_site",
    "source": "osm"
  },
  {
    "name": "Nkopola Lodge Camp Site",
    "latitude": -14.3221835,
    "longitude": 35.1463558,
    "admin": null,
    "type": "camp_site",
    "source": "osm"
  },
  {
    "name": "Nkopola Lodge",
    "latitude": -14.3190233,
    "longitude": 35.1439527,
    "admin": null,
    "type": "hotel",
    "source": "osm"
  },
  {
    "name": "Club Makokola",
    "latitude": -14.3050513,
    "longitude": 35.1333097,
    "admin": null,
    "type": "hotel",
    "source": "osm"
  },
  {
    "name": "Mangumbi",
    "latitude": -14.2520661,
    "longitude": 35.0814679,
    "admin": "Malawi",
    "type": "village",
    "source": "osm"
  },
  {
    "name": "Nanchengwa Lodge",
    "latitude": -14.2482344,
    "longitude": 35.0843921,
    "admin": null,
    "type": "hostel",
    "source": "osm"
  },
  {
    "name": "Mtusi Hill",
    "latitude": -14.2691575,
    "longitude": 34.180632,
    "admin": null,
    "type": "attraction",
    "source": "osm"
  },
  {
    "name": "Bunda Hill",
    "latitude": -14.2784738,
    "longitude": 34.2156509,
    "admin": null,
    "type": "attraction",
    "source": "osm"
  },
  {
    "name": "Chentcherere Rock Shelter",
    "latitude": -14.2854607,
    "longitude": 34.2565063,
    "admin": null,
    "type": "attraction",
    "source": "osm"
  },
  {
    "name": "Standard Bank",
    "latitude": -14.3803168,
    "longitude": 34.334107,
    "admin": null,
    "type": "bank",
    "source": "osm"
  },
  {
    "name": "Forestry College",
    "latitude": -14.3424913,
    "longitude": 34.3087398,
    "admin": null,
    "type": "college",
    "source": "osm"
  },
  {
    "name": "Mlondoma",
    "latitude": -10.761526,
    "longitude": 34.1237824,
    "admin": "Malawi",
    "type": "village",
    "source": "osm"
  },
  {
    "name": "Mojowa",
    "latitude": -10.7629004,
    "longitude": 34.1233704,
    "admin": "Malawi",
    "type": "village",
    "source": "osm"
  },
  {
    "name": "Chimbweya",
    "latitude": -13.4892165,
    "longitude": 34.0247425,
    "admin": "Malawi",
    "type": "village",
    "source": "osm"
  },
  {
    "name": "Chikho",
    "latitude": -13.441137,
    "longitude": 33.9746174,
    "admin": "Malawi",
    "type": "village",
    "source": "osm"
  },
  {
    "name": "Lingona",
    "latitude": -12.9586156,
    "longitude": 34.2975109,
    "admin": "Malawi",
    "type": "village",
    "source": "osm"
  },
  {
    "name": "Nkangayawala",
    "latitude": -13.7931907,
    "longitude": 34.3316617,
    "admin": "Malawi",
    "type": "village",
    "source": "osm"
  },
  {
    "name": "Nchenachena",
    "latitude": -10.7737828,
    "longitude": 34.0366104,
    "admin": "Malawi",
    "type": "village",
    "source": "osm"
  },
  {
    "name": "Chiwaula",
    "latitude": -14.556496,
    "longitude": 35.1818645,
    "admin": "Malawi",
    "type": "village",
    "source": "osm"
  },
  {
    "name": "Mphwanya",
    "latitude": -14.579714,
    "longitude": 35.178535,
    "admin": "Malawi",
    "type": "village",
    "source": "osm"
  },
  {
    "name": "Chipala",
    "latitude": -14.5014931,
    "longitude": 35.2386844,
    "admin": "Malawi",
    "type": "village",
    "source": "osm"
  },
  {
    "name": "Chamba",
    "latitude": -14.4825463,
    "longitude": 35.2489841,
    "admin": null,
    "type": "village",
    "source": "osm"
  },
  {
    "name": "Mtambo",
    "latitude": -14.6500192,
    "longitude": 35.1830661,
    "admin": "Malawi",
    "type": "village",
    "source": "osm"
  },
  {
    "name": "Mtanga",
    "latitude": -14.6853979,
    "longitude": 35.1829775,
    "admin": null,
    "type": "village",
    "source": "osm"
  },
  {
    "name": "Mbapi",
    "latitude": -14.3232634,
    "longitude": 34.776057,
    "admin": "Malawi",
    "type": "village",
    "source": "osm"
  },
  {
    "name": "Kasakula",
    "latitude": -13.3437366,
    "longitude": 34.0760044,
    "admin": "Malawi",
    "type": "village",
    "source": "osm"
  },
  {
    "name": "Chikangawa",
    "latitude": -11.8704242,
    "longitude": 33.7992857,
    "admin": "Malawi",
    "type": "village",
    "source": "osm"
  },
  {
    "name": "Luwawa Campsite",
    "latitude": -12.1210046,
    "longitude": 33.7209128,
    "admin": null,
    "type": "camp_site",
    "source": "osm"
  },
  {
    "name": "Save the Children",
    "latitude": -15.8198971,
    "longitude": 35.0596451,
    "admin": null,
    "type": "police",
    "source": "osm"
  },
  {
    "name": "Herirage by Serendib",
    "latitude": -15.8104415,
    "longitude": 35.0666403,
    "admin": "Limbe",
    "type": "hotel",
    "source": "osm"
  },
  {
    "name": "St Pius School",
    "latitude": -15.8159264,
    "longitude": 35.0207433,
    "admin": null,
    "type": "school",
    "source": "osm"
  },
  {
    "name": "St. Columba CCAP Church",
    "latitude": -15.8175927,
    "longitude": 35.0273469,
    "admin": "Blantyre",
    "type": "place_of_worship",
    "source": "osm"
  },
  {
    "name": "Primary School",
    "latitude": -15.8059949,
    "longitude": 35.0011545,
    "admin": null,
    "type": "school",
    "source": "osm"
  },
  {
    "name": "Masenjere",
    "latitude": -16.3404874,
    "longitude": 35.1004534,
    "admin": "Malawi",
    "type": "village",
    "source": "osm"
  },
  {
    "name": "Kapalaliza",
    "latitude": -15.9508485,
    "longitude": 34.921933,
    "admin": "Malawi",
    "type": "hamlet",
    "source": "osm"
  },
  {
    "name": "MBame",
    "latitude": -15.9227877,
    "longitude": 34.9432191,
    "admin": "Malawi",
    "type": "village",
    "source": "osm"
  },
  {
    "name": "Namonde",
    "latitude": -15.9246035,
    "longitude": 34.8977288,
    "admin": "Malawi",
    "type": "village",
    "source": "osm"
  },
  {
    "name": "Maluwa",
    "latitude": -15.9193211,
    "longitude": 34.9492272,
    "admin": "Malawi",
    "type": "village",
    "source": "osm"
  },
  {
    "name": "Binali",
    "latitude": -15.9260892,
    "longitude": 34.935666,
    "admin": "Malawi",
    "type": "village",
    "source": "osm"
  },
  {
    "name": "Kapalaliza",
    "latitude": -15.9498582,
    "longitude": 34.9057969,
    "admin": "Malawi",
    "type": "village",
    "source": "osm"
  },
  {
    "name": "Kalimezako",
    "latitude": -15.2643535,
    "longitude": 34.6355474,
    "admin": null,
    "type": "village",
    "source": "osm"
  },
  {
    "name": "Matutu Trading Center",
    "latitude": -13.6878033,
    "longitude": 33.0480629,
    "admin": "Malawi",
    "type": "village",
    "source": "osm"
  },
  {
    "name": "Ngokwe",
    "latitude": -14.7094227,
    "longitude": 35.8014216,
    "admin": "Malawi",
    "type": "village",
    "source": "osm"
  },
  {
    "name": "Mbulumbuzi",
    "latitude": -15.6670306,
    "longitude": 35.1589752,
    "admin": "Malawi",
    "type": "village",
    "source": "osm"
  },
  {
    "name": "Tinyade",
    "latitude": -15.84447,
    "longitude": 35.5962963,
    "admin": "Malawi",
    "type": "hamlet",
    "source": "osm"
  },
  {
    "name": "Thunga",
    "latitude": -15.9880857,
    "longitude": 35.0764335,
    "admin": "Malawi",
    "type": "village",
    "source": "osm"
  },
  {
    "name": "Nkhate",
    "latitude": -16.1439904,
    "longitude": 34.9567335,
    "admin": "Malawi",
    "type": "village",
    "source": "osm"
  },
  {
    "name": "Thabwa",
    "latitude": -16.0356184,
    "longitude": 34.8550368,
    "admin": null,
    "type": "village",
    "source": "osm"
  },
  {
    "name": "Dzimphutsi",
    "latitude": -16.0960207,
    "longitude": 34.9103789,
    "admin": "Malawi",
    "type": "village",
    "source": "osm"
  },
  {
    "name": "Nsanama",
    "latitude": -14.99342,
    "longitude": 35.490792,
    "admin": "Malawi",
    "type": "village",
    "source": "osm"
  },
  {
    "name": "Eswanzini",
    "latitude": -11.7273173,
    "longitude": 33.6620084,
    "admin": "Malawi",
    "type": "village",
    "source": "osm"
  },
  {
    "name": "Liwenga",
    "latitude": -13.0813195,
    "longitude": 33.8386761,
    "admin": "Malawi",
    "type": "village",
    "source": "osm"
  },
  {
    "name": "Kachuma",
    "latitude": -12.9705055,
    "longitude": 34.23153,
    "admin": "Malawi",
    "type": "village",
    "source": "osm"
  },
  {
    "name": "Chanika",
    "latitude": -12.9284654,
    "longitude": 34.1933101,
    "admin": "Malawi",
    "type": "village",
    "source": "osm"
  },
  {
    "name": "Gogode",
    "latitude": -12.8893424,
    "longitude": 33.5589521,
    "admin": "Malawi",
    "type": "village",
    "source": "osm"
  },
  {
    "name": "Suza",
    "latitude": -12.9359625,
    "longitude": 33.4832708,
    "admin": "Malawi",
    "type": "village",
    "source": "osm"
  },
  {
    "name": "Agrippa Jere",
    "latitude": -11.3677826,
    "longitude": 33.3805031,
    "admin": "Malawi",
    "type": "village",
    "source": "osm"
  },
  {
    "name": "Mthatha",
    "latitude": -11.537511,
    "longitude": 33.5886559,
    "admin": "Malawi",
    "type": "village",
    "source": "osm"
  },
  {
    "name": "Kandodo Chisi",
    "latitude": -11.9000219,
    "longitude": 33.5537345,
    "admin": "Malawi",
    "type": "village",
    "source": "osm"
  },
  {
    "name": "Engalaweni",
    "latitude": -11.9072446,
    "longitude": 33.3652503,
    "admin": "Malawi",
    "type": "village",
    "source": "osm"
  },
  {
    "name": "Chaisi Ndhlovu",
    "latitude": -11.8017198,
    "longitude": 33.3585925,
    "admin": "Malawi",
    "type": "village",
    "source": "osm"
  },
  {
    "name": "Kamtuwale",
    "latitude": -12.7664092,
    "longitude": 33.3494819,
    "admin": "Malawi",
    "type": "village",
    "source": "osm"
  },
  {
    "name": "Magodi Nyirenda",
    "latitude": -11.5483195,
    "longitude": 33.5604896,
    "admin": "Malawi",
    "type": "village",
    "source": "osm"
  },
  {
    "name": "Yesaya Nkosi",
    "latitude": -11.7147743,
    "longitude": 33.5474433,
    "admin": "Malawi",
    "type": "village",
    "source": "osm"
  },
  {
    "name": "Kapesi",
    "latitude": -13.5968467,
    "longitude": 32.7108234,
    "admin": "Malawi",
    "type": "village",
    "source": "osm"
  },
  {
    "name": "Bwanaisa",
    "latitude": -15.8218329,
    "longitude": 35.6202379,
    "admin": "Malawi",
    "type": "village",
    "source": "osm"
  },
  {
    "name": "Chipumi TC",
    "latitude": -13.6233639,
    "longitude": 33.0810648,
    "admin": "Malawi",
    "type": "village",
    "source": "osm"
  },
  {
    "name": "Vongo",
    "latitude": -11.025435,
    "longitude": 33.7841875,
    "admin": "Malawi",
    "type": "village",
    "source": "osm"
  },
  {
    "name": "Kasiya",
    "latitude": -13.7533159,
    "longitude": 33.4149364,
    "admin": null,
    "type": "village",
    "source": "osm"
  },
  {
    "name": "Othambwe",
    "latitude": -13.7264248,
    "longitude": 33.8045832,
    "admin": "Malawi",
    "type": "village",
    "source": "osm"
  },
  {
    "name": "Chingeni",
    "latitude": -14.9582493,
    "longitude": 34.8951101,
    "admin": "Malawi",
    "type": "village",
    "source": "osm"
  },
  {
    "name": "Mangoma",
    "latitude": -14.171365,
    "longitude": 34.9436051,
    "admin": null,
    "type": "village",
    "source": "osm"
  },
  {
    "name": "Sandama",
    "latitude": -16.2060824,
    "longitude": 35.2948559,
    "admin": "Malawi",
    "type": "village",
    "source": "osm"
  },
  {
    "name": "Njolo",
    "latitude": -14.3024079,
    "longitude": 34.5307069,
    "admin": "Malawi",
    "type": "village",
    "source": "osm"
  },
  {
    "name": "Thumbi",
    "latitude": -11.0306383,
    "longitude": 33.9354409,
    "admin": "Malawi",
    "type": "village",
    "source": "osm"
  },
  {
    "name": "Santhe",
    "latitude": -13.4358045,
    "longitude": 33.3924839,
    "admin": "Malawi",
    "type": "village",
    "source": "osm"
  },
  {
    "name": "Moloseni",
    "latitude": -16.4612076,
    "longitude": 35.1768101,
    "admin": null,
    "type": "village",
    "source": "osm"
  },
  {
    "name": "Khasu",
    "latitude": -16.4789935,
    "longitude": 35.1875287,
    "admin": null,
    "type": "village",
    "source": "osm"
  },
  {
    "name": "Chambuluka",
    "latitude": -16.4711384,
    "longitude": 35.1912264,
    "admin": null,
    "type": "village",
    "source": "osm"
  },
  {
    "name": "Adam",
    "latitude": -16.4434385,
    "longitude": 35.1901244,
    "admin": null,
    "type": "village",
    "source": "osm"
  },
  {
    "name": "Nyaikha",
    "latitude": -16.4474245,
    "longitude": 35.1928189,
    "admin": null,
    "type": "village",
    "source": "osm"
  },
  {
    "name": "Chabe",
    "latitude": -16.4615278,
    "longitude": 35.2008619,
    "admin": null,
    "type": "village",
    "source": "osm"
  },
  {
    "name": "Gundani",
    "latitude": -16.4560378,
    "longitude": 35.2007124,
    "admin": null,
    "type": "village",
    "source": "osm"
  },
  {
    "name": "Khavala",
    "latitude": -16.414337,
    "longitude": 35.1670374,
    "admin": null,
    "type": "village",
    "source": "osm"
  },
  {
    "name": "Malothi",
    "latitude": -16.4154263,
    "longitude": 35.1689614,
    "admin": null,
    "type": "village",
    "source": "osm"
  },
  {
    "name": "Old Bishops House",
    "latitude": -16.4216971,
    "longitude": 35.1817602,
    "admin": null,
    "type": "public_building",
    "source": "osm"
  },
  {
    "name": "Napasha",
    "latitude": -16.4218508,
    "longitude": 35.176196,
    "admin": null,
    "type": "village",
    "source": "osm"
  },
  {
    "name": "Khavala Beer Hall",
    "latitude": -16.4116693,
    "longitude": 35.1663874,
    "admin": null,
    "type": "pub",
    "source": "osm"
  },
  {
    "name": "Functioning Bore Hole",
    "latitude": -16.429032,
    "longitude": 35.1457741,
    "admin": null,
    "type": "drinking_water",
    "source": "osm"
  },
  {
    "name": "Muona C.C.A.P Church",
    "latitude": -16.4249056,
    "longitude": 35.1756003,
    "admin": null,
    "type": "place_of_worship",
    "source": "osm"
  },
  {
    "name": "Chipondeni",
    "latitude": -16.4182659,
    "longitude": 35.1473372,
    "admin": null,
    "type": "village",
    "source": "osm"
  },
  {
    "name": "Chinekwe",
    "latitude": -16.3789633,
    "longitude": 35.1336618,
    "admin": null,
    "type": "village",
    "source": "osm"
  },
  {
    "name": "Angayanjane",
    "latitude": -16.3760558,
    "longitude": 35.1306154,
    "admin": null,
    "type": "village",
    "source": "osm"
  },
  {
    "name": "Saint Annie Roman Catholic Church",
    "latitude": -16.3754757,
    "longitude": 35.1332241,
    "admin": null,
    "type": "place_of_worship",
    "source": "osm"
  },
  {
    "name": "Pentecost Church",
    "latitude": -16.3888191,
    "longitude": 35.1350901,
    "admin": null,
    "type": "place_of_worship",
    "source": "osm"
  },
  {
    "name": "Chomboto",
    "latitude": -16.3893555,
    "longitude": 35.1419165,
    "admin": null,
    "type": "village",
    "source": "osm"
  },
  {
    "name": "Chinyanje School",
    "latitude": -16.3909724,
    "longitude": 35.144175,
    "admin": null,
    "type": "school",
    "source": "osm"
  },
  {
    "name": "Jokoniya",
    "latitude": -16.401022,
    "longitude": 35.1468751,
    "admin": null,
    "type": "village",
    "source": "osm"
  },
  {
    "name": "Amazing Day Care Centre",
    "latitude": -16.3947502,
    "longitude": 35.1487955,
    "admin": null,
    "type": "kindergarten",
    "source": "osm"
  },
  {
    "name": "Chinyanje Seventh Day Adventist Church",
    "latitude": -16.3892416,
    "longitude": 35.144938,
    "admin": null,
    "type": "place_of_worship",
    "source": "osm"
  },
  {
    "name": "Zelewe Forest Lodge",
    "latitude": -16.38529,
    "longitude": 35.1461829,
    "admin": null,
    "type": "guest_house",
    "source": "osm"
  },
  {
    "name": "Chamawoya",
    "latitude": -11.5366822,
    "longitude": 34.0933545,
    "admin": "Malawi",
    "type": "village",
    "source": "osm"
  },
  {
    "name": "Tunduma",
    "latitude": -11.5243167,
    "longitude": 34.0760612,
    "admin": "Malawi",
    "type": "hamlet",
    "source": "osm"
  },
  {
    "name": "Malemi",
    "latitude": -13.9304072,
    "longitude": 33.3941445,
    "admin": null,
    "type": "village",
    "source": "osm"
  },
  {
    "name": "Masula",
    "latitude": -13.9316332,
    "longitude": 33.4064437,
    "admin": null,
    "type": "village",
    "source": "osm"
  },
  {
    "name": "Makanda",
    "latitude": -12.9897874,
    "longitude": 33.6297469,
    "admin": "Malawi",
    "type": "village",
    "source": "osm"
  },
  {
    "name": "Kawere",
    "latitude": -13.5909023,
    "longitude": 32.9455624,
    "admin": "Malawi",
    "type": "village",
    "source": "osm"
  },
  {
    "name": "Chinzama",
    "latitude": -16.2662014,
    "longitude": 35.1590657,
    "admin": "Malawi",
    "type": "village",
    "source": "osm"
  },
  {
    "name": "Chilangoma",
    "latitude": -15.6238885,
    "longitude": 34.931456,
    "admin": "Malawi",
    "type": "village",
    "source": "osm"
  },
  {
    "name": "Makwasa",
    "latitude": -16.1784002,
    "longitude": 35.1042111,
    "admin": "Malawi",
    "type": "village",
    "source": "osm"
  },
  {
    "name": "Chipwanje",
    "latitude": -16.364721,
    "longitude": 35.1947713,
    "admin": "Malawi",
    "type": "village",
    "source": "osm"
  },
  {
    "name": "Matechanga Guest House",
    "latitude": -16.040675,
    "longitude": 34.7955202,
    "admin": null,
    "type": "guest_house",
    "source": "osm"
  },
  {
    "name": "Mapalera Full Primary School",
    "latitude": -16.1047233,
    "longitude": 34.9187562,
    "admin": null,
    "type": "school",
    "source": "osm"
  },
  {
    "name": "Mpama Full Primary School",
    "latitude": -16.3040802,
    "longitude": 35.059937,
    "admin": null,
    "type": "school",
    "source": "osm"
  },
  {
    "name": "Mthonda Catholic School",
    "latitude": -16.2704037,
    "longitude": 35.058105,
    "admin": null,
    "type": "school",
    "source": "osm"
  },
  {
    "name": "Nchacha Primary",
    "latitude": -16.234416,
    "longitude": 35.0333556,
    "admin": null,
    "type": "school",
    "source": "osm"
  },
  {
    "name": "Dzimbiri Improved Health Post",
    "latitude": -16.1449929,
    "longitude": 34.9581099,
    "admin": null,
    "type": "health",
    "source": "osm"
  },
  {
    "name": "Chilekwe Borehole",
    "latitude": -16.3781,
    "longitude": 35.1328486,
    "admin": null,
    "type": "drinking_water",
    "source": "osm"
  },
  {
    "name": "Kalulu Full Primary School",
    "latitude": -16.3705472,
    "longitude": 35.1265549,
    "admin": null,
    "type": "school",
    "source": "osm"
  },
  {
    "name": "GVH Gandhi Borehole",
    "latitude": -16.3678364,
    "longitude": 35.122308,
    "admin": null,
    "type": "drinking_water",
    "source": "osm"
  },
  {
    "name": "Mphaseo Private School",
    "latitude": -16.3639299,
    "longitude": 35.1191265,
    "admin": null,
    "type": "school",
    "source": "osm"
  },
  {
    "name": "Chambiluka Borehole (no. 2)",
    "latitude": -16.4684175,
    "longitude": 35.1901167,
    "admin": null,
    "type": "drinking_water",
    "source": "osm"
  },
  {
    "name": "Faith in Action Pentecostal Church",
    "latitude": -16.467096,
    "longitude": 35.1898387,
    "admin": null,
    "type": "place_of_worship",
    "source": "osm"
  },
  {
    "name": "True Vine Church",
    "latitude": -16.4604949,
    "longitude": 35.1735365,
    "admin": null,
    "type": "place_of_worship",
    "source": "osm"
  },
  {
    "name": "Mibwazi Primary School",
    "latitude": -16.447203,
    "longitude": 35.1838503,
    "admin": null,
    "type": "school",
    "source": "osm"
  },
  {
    "name": "Mibwazi",
    "latitude": -16.4469659,
    "longitude": 35.1845029,
    "admin": null,
    "type": "village",
    "source": "osm"
  },
  {
    "name": "Apostolic Faith Mission",
    "latitude": -16.4470853,
    "longitude": 35.1837854,
    "admin": "Mibwazi",
    "type": "place_of_worship",
    "source": "osm"
  },
  {
    "name": "Nyaikha Borehole",
    "latitude": -16.448182,
    "longitude": 35.1921609,
    "admin": null,
    "type": "drinking_water",
    "source": "osm"
  },
  {
    "name": "Chitseko Borehole",
    "latitude": -16.4440958,
    "longitude": 35.1825191,
    "admin": null,
    "type": "drinking_water",
    "source": "osm"
  },
  {
    "name": "Chitseko",
    "latitude": -16.4388491,
    "longitude": 35.1803015,
    "admin": "Malawi",
    "type": "village",
    "source": "osm"
  },
  {
    "name": "Npasha Borehole",
    "latitude": -16.425574,
    "longitude": 35.1771827,
    "admin": null,
    "type": "drinking_water",
    "source": "osm"
  },
  {
    "name": "Living Waters Church",
    "latitude": -16.4255618,
    "longitude": 35.1771763,
    "admin": "Npasha",
    "type": "place_of_worship",
    "source": "osm"
  },
  {
    "name": "Npasha",
    "latitude": -16.4255553,
    "longitude": 35.1772694,
    "admin": null,
    "type": "hamlet",
    "source": "osm"
  },
  {
    "name": "Fatima Girls Boarding School",
    "latitude": -16.4222554,
    "longitude": 35.1765386,
    "admin": null,
    "type": "school",
    "source": "osm"
  },
  {
    "name": "Mathiya Borehole",
    "latitude": -16.4341137,
    "longitude": 35.1809478,
    "admin": null,
    "type": "drinking_water",
    "source": "osm"
  },
  {
    "name": "Evalngelical Church of Malawi",
    "latitude": -16.4321597,
    "longitude": 35.1799509,
    "admin": "Mlambula",
    "type": "place_of_worship",
    "source": "osm"
  },
  {
    "name": "Muona Post Office",
    "latitude": -16.4299484,
    "longitude": 35.1787726,
    "admin": null,
    "type": "post_office",
    "source": "osm"
  },